Dataset,Algorithm,Lambda,MemoryKB,TimeMS,TourLength,Bends,AvgBendAngle,Accuracy%
a20,hhi_MST,0,3712,0,370,19,113.22,0.00
a20,hhi_MST,0.50,3712,0,370,19,113.22,0.00
a20,hhi_MST,1.00,3712,0,370,19,113.22,0.00
a20,hhi_MST,3.00,3712,0,370,19,113.22,0.00
a20,hhi_MST,5.00,3712,0,370,19,113.22,0.00
a20,hhi_MST,7.00,3712,0,370,19,113.22,0.00
a20,hhi_MST,10.00,3712,0,370,19,113.22,0.00
a20,hhi_MST,25.00,3712,0,370,19,113.22,0.00
a20,hhi_MST,50.00,3712,0,370,19,113.22,0.00
a20,hhi_MST,75.00,3712,0,370,19,113.22,0.00
a20,hhi_MST,100.00,3712,0,370,19,113.22,0.00
a20,hhi_MST,200.00,3712,0,362,19,128.43,0.00
a280,hhi_MST,0.00,3712,0,3753,271,132.94,0.00
a280,hhi_MST,0.50,3712,0,3847,271,133.10,0.00
a280,hhi_MST,1.00,3712,0,3847,271,133.10,0.00
a280,hhi_MST,3.00,3712,0,3847,271,133.10,0.00
a280,hhi_MST,5.00,3712,0,3847,271,133.10,0.00
a280,hhi_MST,7.00,3712,0,3847,271,133.10,0.00
a280,hhi_MST,10.00,3712,0,3847,271,133.10,0.00
a280,hhi_MST,25.00,3712,0,3847,271,133.10,0.00
a280,hhi_MST,50.00,3712,0,3847,271,133.10,0.00
a280,hhi_MST,75.00,3712,0,3555,275,132.16,0.00
a280,hhi_MST,100.00,3712,0,3555,275,132.16,0.00
a280,hhi_MST,200.00,3712,0,3555,275,132.16,0.00
xql662,hhi_MST,0.00,3712,0,3341,655,127.74,0.00
xql662,hhi_MST,0.50,3712,0,3651,656,126.47,0.00
xql662,hhi_MST,1.00,3712,0,3548,647,126.35,0.00
xql662,hhi_MST,3.00,3712,0,3441,649,127.60,0.00
xql662,hhi_MST,5.00,3712,0,3446,650,127.64,0.00
xql662,hhi_MST,7.00,3712,0,3443,652,127.95,0.00
xql662,hhi_MST,10.00,3712,0,3516,653,128.77,0.00
xql662,hhi_MST,25.00,3712,0,3504,656,129.00,0.00
xql662,hhi_MST,50.00,3712,0,3716,658,129.67,0.00
xql662,hhi_MST,75.00,3712,0,3522,659,131.31,0.00
xql662,hhi_MST,100.00,3712,0,3793,659,130.12,0.00
xql662,hhi_MST,200.00,3712,0,3772,661,131.17,0.00
kz9976,hhi_MST,0.00,3968,10,1548622,9954,114.56,0.00
kz9976,hhi_MST,0.50,3968,9,1550441,9955,114.48,0.00
kz9976,hhi_MST,1.00,3968,10,1559137,9954,114.50,0.00
kz9976,hhi_MST,3.00,3968,9,1558906,9954,114.51,0.00
kz9976,hhi_MST,5.00,3968,9,1555642,9955,114.48,0.00
kz9976,hhi_MST,7.00,3968,8,1555796,9955,114.48,0.00
kz9976,hhi_MST,10.00,3968,8,1563722,9958,114.32,0.00
kz9976,hhi_MST,25.00,3968,8,1557560,9961,114.63,0.00
kz9976,hhi_MST,50.00,3968,10,1566624,9964,114.33,0.00
kz9976,hhi_MST,75.00,3968,9,1539996,9957,114.72,0.00
kz9976,hhi_MST,100.00,3968,8,1543752,9957,115.33,0.00
kz9976,hhi_MST,200.00,3968,10,1565826,9955,116.07,0.00
ei8246,hhi_MST,0.00,4028,8,277827,8227,114.85,0.00
ei8246,hhi_MST,0.50,4028,7,274597,8229,114.76,0.00
ei8246,hhi_MST,1.00,4028,8,282676,8233,115.16,0.00
ei8246,hhi_MST,3.00,4028,8,277210,8234,115.20,0.00
ei8246,hhi_MST,5.00,4028,7,277617,8229,114.95,0.00
ei8246,hhi_MST,7.00,4028,6,277233,8236,115.24,0.00
ei8246,hhi_MST,10.00,4028,7,274585,8233,115.42,0.00
ei8246,hhi_MST,25.00,4028,7,275043,8233,115.69,0.00
ei8246,hhi_MST,50.00,4028,7,278899,8236,116.70,0.00
ei8246,hhi_MST,75.00,4028,8,273629,8229,116.63,0.00
ei8246,hhi_MST,100.00,4028,7,279206,8241,117.32,0.00
ei8246,hhi_MST,200.00,4028,7,279208,8240,118.29,0.00
vm22775,hhi_MST,0.00,4284,19,833095,22395,116.31,0.00
vm22775,hhi_MST,0.50,4284,19,836861,22429,117.64,0.00
vm22775,hhi_MST,1.00,4284,19,836599,22418,117.79,0.00
vm22775,hhi_MST,3.00,4284,20,838652,22429,117.72,0.00
vm22775,hhi_MST,5.00,4284,20,832440,22449,117.80,0.00
vm22775,hhi_MST,7.00,4284,18,837207,22445,117.81,0.00
vm22775,hhi_MST,10.00,4284,19,838179,22458,117.91,0.00
vm22775,hhi_MST,25.00,4284,19,830961,22507,117.95,0.00
vm22775,hhi_MST,50.00,4284,18,829615,22547,118.18,0.00
vm22775,hhi_MST,75.00,4284,18,841795,22594,118.33,0.00
vm22775,hhi_MST,100.00,4284,19,843361,22614,118.65,0.00
vm22775,hhi_MST,200.00,4284,19,849807,22662,119.12,0.00
ja9847,hhi_MST,0.00,4284,8,729373,9780,115.93,0.00
ja9847,hhi_MST,0.50,4284,8,757037,9793,116.91,0.00
ja9847,hhi_MST,1.00,4284,7,756877,9793,116.95,0.00
ja9847,hhi_MST,3.00,4284,8,757957,9797,116.92,0.00
ja9847,hhi_MST,5.00,4284,9,754051,9797,117.11,0.00
ja9847,hhi_MST,7.00,4284,8,755280,9800,117.24,0.00
ja9847,hhi_MST,10.00,4284,7,735422,9802,116.82,0.00
ja9847,hhi_MST,25.00,4284,8,753490,9805,117.79,0.00
ja9847,hhi_MST,50.00,4284,9,752726,9810,118.19,0.00
ja9847,hhi_MST,75.00,4284,7,759712,9818,118.55,0.00
ja9847,hhi_MST,100.00,4284,8,759578,9810,118.62,0.00
ja9847,hhi_MST,200.00,4284,8,746741,9824,118.94,0.00
mona-lisa100K,hhi_MST,0.00,7004,120,7006261,99959,115.66,0.00
mona-lisa100K,hhi_MST,0.50,7132,123,7007811,99958,115.80,0.00
mona-lisa100K,hhi_MST,1.00,7132,119,7020008,99955,115.63,0.00
mona-lisa100K,hhi_MST,3.00,7132,114,7012084,99973,115.76,0.00
mona-lisa100K,hhi_MST,5.00,7132,108,7001439,99964,115.68,0.00
mona-lisa100K,hhi_MST,7.00,7132,123,7003547,99963,115.92,0.00
mona-lisa100K,hhi_MST,10.00,7132,126,6999006,99943,115.86,0.00
mona-lisa100K,hhi_MST,25.00,7132,119,7015367,99955,116.03,0.00
mona-lisa100K,hhi_MST,50.00,7132,121,7012163,99960,116.16,0.00
mona-lisa100K,hhi_MST,75.00,7132,114,6988577,99971,116.48,0.00
mona-lisa100K,hhi_MST,100.00,7132,123,7028630,99944,116.49,0.00
mona-lisa100K,hhi_MST,200.00,7132,149,7037461,99971,117.14,0.00
