Dataset,Algorithm,Lambda,MemoryKB,TimeMS,TourLength,Bends,AvgBendAngle,Accuracy%
a20,hhi_MST,0,3712,0,370,19,113.22,0.00
a20,hhi_MST,0.50,3840,0,370,19,113.22,0.00
a20,hhi_MST,1.00,3840,0,370,19,113.22,0.00
a20,hhi_MST,1.50,3840,0,370,19,113.22,0.00
a20,hhi_MST,2.00,3840,0,370,19,113.22,0.00
a20,hhi_MST,2.50,3840,0,370,19,113.22,0.00
a20,hhi_MST,3.00,3840,0,370,19,113.22,0.00
a20,hhi_MST,3.50,3840,0,370,19,113.22,0.00
a20,hhi_MST,4.00,3840,0,370,19,113.22,0.00
a20,hhi_MST,4.50,3840,0,370,19,113.22,0.00
a20,hhi_MST,5.00,3840,0,370,19,113.22,0.00
a20,hhi_MST,7.00,3840,0,370,19,113.22,0.00
a20,hhi_MST,10.00,3840,0,370,19,113.22,0.00
a20,hhi_MST,25.00,3840,0,370,19,113.22,0.00
a20,hhi_MST,50.00,3840,0,365,18,128.79,0.00
a20,hhi_MST,75.00,3968,0,415,18,114.51,0.00
a20,hhi_MST,100.00,3968,0,415,18,114.51,0.00
a20,hhi_MST,200.00,3968,0,415,18,114.51,0.00
a280,hhi_MST,0.00,3968,0,3594,275,138.02,0.00
a280,hhi_MST,0.50,3968,0,3594,275,137.76,0.00
a280,hhi_MST,1.00,3968,0,3594,275,137.76,0.00
a280,hhi_MST,1.50,3968,0,3594,275,137.76,0.00
a280,hhi_MST,2.00,3968,0,3594,275,137.76,0.00
a280,hhi_MST,2.50,3968,0,3594,275,137.76,0.00
a280,hhi_MST,3.00,3968,0,3594,275,137.76,0.00
a280,hhi_MST,3.50,3968,0,3594,275,137.76,0.00
a280,hhi_MST,4.00,3968,0,3594,275,137.76,0.00
a280,hhi_MST,4.50,3968,0,3594,275,137.76,0.00
a280,hhi_MST,5.00,3968,0,3594,275,137.76,0.00
a280,hhi_MST,7.00,3968,0,3594,275,137.76,0.00
a280,hhi_MST,10.00,3968,0,3594,275,137.76,0.00
a280,hhi_MST,25.00,3968,0,3535,276,137.49,0.00
a280,hhi_MST,50.00,3968,0,3554,275,140.57,0.00
a280,hhi_MST,75.00,3968,0,3554,275,140.57,0.00
a280,hhi_MST,100.00,3968,0,3554,275,140.57,0.00
a280,hhi_MST,200.00,3968,0,3585,276,138.39,0.00
xql662,hhi_MST,0.00,3968,0,3349,652,129.90,0.00
xql662,hhi_MST,0.50,3968,0,3310,650,133.19,0.00
xql662,hhi_MST,1.00,3968,0,3244,651,132.53,0.00
xql662,hhi_MST,1.50,3968,0,3422,651,132.72,0.00
xql662,hhi_MST,2.00,3968,0,3326,654,131.05,0.00
xql662,hhi_MST,2.50,3968,0,3549,657,131.55,0.00
xql662,hhi_MST,3.00,3968,0,3474,657,131.42,0.00
xql662,hhi_MST,3.50,3968,0,3329,655,132.28,0.00
xql662,hhi_MST,4.00,3968,1,3300,658,132.81,0.00
xql662,hhi_MST,4.50,3968,0,3399,658,133.19,0.00
xql662,hhi_MST,5.00,3968,0,3399,658,133.19,0.00
xql662,hhi_MST,7.00,3968,0,3407,660,133.13,0.00
xql662,hhi_MST,10.00,3968,0,3325,657,133.45,0.00
xql662,hhi_MST,25.00,3968,0,3448,660,136.14,0.00
xql662,hhi_MST,50.00,3968,0,3465,659,135.72,0.00
xql662,hhi_MST,75.00,3968,0,3655,660,135.41,0.00
xql662,hhi_MST,100.00,3968,0,3698,659,135.56,0.00
xql662,hhi_MST,200.00,3968,0,3716,660,137.46,0.00
kz9976,hhi_MST,0.00,4096,9,1641974,9936,113.01,0.00
kz9976,hhi_MST,0.50,4096,8,1649990,9943,112.62,0.00
kz9976,hhi_MST,1.00,4096,7,1640549,9943,112.58,0.00
kz9976,hhi_MST,1.50,4096,7,1631901,9942,112.76,0.00
kz9976,hhi_MST,2.00,4096,7,1630082,9942,113.11,0.00
kz9976,hhi_MST,2.50,4096,7,1633848,9943,113.11,0.00
kz9976,hhi_MST,3.00,4096,8,1634067,9941,113.17,0.00
kz9976,hhi_MST,3.50,4096,8,1633264,9941,113.17,0.00
kz9976,hhi_MST,4.00,4096,9,1630825,9941,113.30,0.00
kz9976,hhi_MST,4.50,4096,8,1634610,9942,113.04,0.00
kz9976,hhi_MST,5.00,4096,9,1634661,9942,113.04,0.00
kz9976,hhi_MST,7.00,4096,9,1626663,9941,113.12,0.00
kz9976,hhi_MST,10.00,4096,8,1640906,9943,113.18,0.00
kz9976,hhi_MST,25.00,4096,6,1620714,9943,113.71,0.00
kz9976,hhi_MST,50.00,4096,7,1657424,9948,114.67,0.00
kz9976,hhi_MST,75.00,4096,7,1640522,9943,115.06,0.00
kz9976,hhi_MST,100.00,4096,9,1625677,9945,115.60,0.00
kz9976,hhi_MST,200.00,4096,7,1671234,9954,117.18,0.00
ei8246,hhi_MST,0.00,4168,11,266886,8234,116.10,0.00
ei8246,hhi_MST,0.50,4168,12,271092,8231,116.87,0.00
ei8246,hhi_MST,1.00,4168,12,268998,8235,116.92,0.00
ei8246,hhi_MST,1.50,4168,10,267406,8233,117.79,0.00
ei8246,hhi_MST,2.00,4168,11,269986,8235,117.64,0.00
ei8246,hhi_MST,2.50,4168,11,266974,8238,117.69,0.00
ei8246,hhi_MST,3.00,4168,11,271631,8232,117.48,0.00
ei8246,hhi_MST,3.50,4296,11,267924,8233,118.15,0.00
ei8246,hhi_MST,4.00,4296,11,269556,8232,117.93,0.00
ei8246,hhi_MST,4.50,4296,13,267367,8238,118.27,0.00
ei8246,hhi_MST,5.00,4296,13,268856,8233,118.47,0.00
ei8246,hhi_MST,7.00,4296,11,267611,8230,118.51,0.00
ei8246,hhi_MST,10.00,4296,11,271271,8235,119.68,0.00
ei8246,hhi_MST,25.00,4296,12,272758,8239,121.66,0.00
ei8246,hhi_MST,50.00,4296,14,281707,8239,122.99,0.00
ei8246,hhi_MST,75.00,4296,12,281597,8239,124.37,0.00
ei8246,hhi_MST,100.00,4296,10,286116,8241,125.95,0.00
ei8246,hhi_MST,200.00,4296,10,290320,8240,127.84,0.00
vm22775,hhi_MST,0.00,4520,13,870494,22293,115.82,0.00
vm22775,hhi_MST,0.50,4520,14,879117,22364,117.12,0.00
vm22775,hhi_MST,1.00,4520,12,871588,22374,117.35,0.00
vm22775,hhi_MST,1.50,4520,13,871699,22370,117.37,0.00
vm22775,hhi_MST,2.00,4520,15,885405,22370,117.41,0.00
vm22775,hhi_MST,2.50,4520,15,884557,22368,117.63,0.00
vm22775,hhi_MST,3.00,4520,14,866569,22378,117.41,0.00
vm22775,hhi_MST,3.50,4520,14,868613,22355,117.49,0.00
vm22775,hhi_MST,4.00,4520,13,867124,22352,117.81,0.00
vm22775,hhi_MST,4.50,4520,15,864618,22386,118.22,0.00
vm22775,hhi_MST,5.00,4520,14,857945,22390,118.16,0.00
vm22775,hhi_MST,7.00,4520,13,868494,22406,118.17,0.00
vm22775,hhi_MST,10.00,4520,14,878416,22392,118.45,0.00
vm22775,hhi_MST,25.00,4520,13,879168,22425,119.94,0.00
vm22775,hhi_MST,50.00,4520,14,878818,22482,120.47,0.00
vm22775,hhi_MST,75.00,4520,16,891975,22510,120.94,0.00
vm22775,hhi_MST,100.00,4520,14,901887,22515,121.37,0.00
vm22775,hhi_MST,200.00,4520,16,919936,22588,122.33,0.00
ja9847,hhi_MST,0.00,4520,5,793051,9761,113.85,0.00
ja9847,hhi_MST,0.50,4520,6,792011,9775,114.64,0.00
ja9847,hhi_MST,1.00,4520,6,788414,9774,114.77,0.00
ja9847,hhi_MST,1.50,4520,7,794099,9750,114.62,0.00
ja9847,hhi_MST,2.00,4520,5,792983,9759,115.11,0.00
ja9847,hhi_MST,2.50,4520,6,793934,9774,115.51,0.00
ja9847,hhi_MST,3.00,4520,5,786273,9768,115.93,0.00
ja9847,hhi_MST,3.50,4520,6,793730,9768,115.83,0.00
ja9847,hhi_MST,4.00,4520,8,777050,9768,115.76,0.00
ja9847,hhi_MST,4.50,4520,6,787067,9762,115.48,0.00
ja9847,hhi_MST,5.00,4520,6,778741,9771,115.80,0.00
ja9847,hhi_MST,7.00,4520,5,786990,9777,116.60,0.00
ja9847,hhi_MST,10.00,4520,6,802243,9783,116.75,0.00
ja9847,hhi_MST,25.00,4520,6,813403,9785,118.30,0.00
ja9847,hhi_MST,50.00,4520,5,825367,9793,119.56,0.00
ja9847,hhi_MST,75.00,4520,6,823550,9808,120.84,0.00
ja9847,hhi_MST,100.00,4520,5,826664,9804,120.94,0.00
ja9847,hhi_MST,200.00,4520,6,837500,9820,122.52,0.00
mona-lisa100K,hhi_MST,0.00,7228,195,6912190,99958,118.86,0.00
mona-lisa100K,hhi_MST,0.50,7356,251,6915889,99971,119.00,0.00
mona-lisa100K,hhi_MST,1.00,7356,191,6909706,99970,119.15,0.00
mona-lisa100K,hhi_MST,1.50,7356,182,6873352,99954,119.11,0.00
mona-lisa100K,hhi_MST,2.00,7356,173,6894925,99954,119.31,0.00
mona-lisa100K,hhi_MST,2.50,7356,178,6864390,99979,119.39,0.00
mona-lisa100K,hhi_MST,3.00,7356,178,6889138,99948,119.50,0.00
mona-lisa100K,hhi_MST,3.50,7356,196,6915001,99962,119.66,0.00
mona-lisa100K,hhi_MST,4.00,7356,177,6917366,99966,119.59,0.00
mona-lisa100K,hhi_MST,4.50,7356,179,6907694,99970,119.64,0.00
mona-lisa100K,hhi_MST,5.00,7356,175,6913613,99963,119.70,0.00
mona-lisa100K,hhi_MST,7.00,7356,180,6901881,99964,119.97,0.00
mona-lisa100K,hhi_MST,10.00,7356,208,6926650,99971,120.61,0.00
mona-lisa100K,hhi_MST,25.00,7484,198,6930895,99972,122.20,0.00
mona-lisa100K,hhi_MST,50.00,7484,173,6950154,99965,123.94,0.00
mona-lisa100K,hhi_MST,75.00,7484,180,6979226,99965,124.89,0.00
mona-lisa100K,hhi_MST,100.00,7484,171,6990689,99973,125.60,0.00
mona-lisa100K,hhi_MST,200.00,7484,187,7037298,99973,127.59,0.00
