Dataset,Algorithm,Lambda,MemoryKB,TimeMS,TourLength,Bends,AvgBendAngle,Accuracy%
a20,hhi_greedy_basic_adapK,0,7352,0,370,19,113.22,0.00
a20,hhi_greedy_basic_adapK,0.50,7352,0,370,19,113.22,0.00
a20,hhi_greedy_basic_adapK,1.00,7352,0,370,19,113.22,0.00
a20,hhi_greedy_basic_adapK,1.50,7352,0,370,19,113.22,0.00
a20,hhi_greedy_basic_adapK,2.00,7352,0,370,19,113.22,0.00
a20,hhi_greedy_basic_adapK,2.50,7352,0,370,19,113.22,0.00
a20,hhi_greedy_basic_adapK,3.00,7352,0,370,19,113.22,0.00
a20,hhi_greedy_basic_adapK,3.50,7352,0,370,19,113.22,0.00
a20,hhi_greedy_basic_adapK,4.00,7352,0,370,19,113.22,0.00
a20,hhi_greedy_basic_adapK,5.00,7352,0,370,19,113.22,0.00
a20,hhi_greedy_basic_adapK,7.00,7352,0,370,19,113.22,0.00
a20,hhi_greedy_basic_adapK,10.00,7352,0,370,19,113.22,0.00
a20,hhi_greedy_basic_adapK,25.00,7352,0,370,19,113.22,0.00
a20,hhi_greedy_basic_adapK,50.00,7352,0,362,19,126.75,0.00
a20,hhi_greedy_basic_adapK,75.00,7352,0,412,18,119.51,0.00
a20,hhi_greedy_basic_adapK,100.00,7480,0,412,18,119.51,0.00
a20,hhi_greedy_basic_adapK,200.00,7480,0,412,18,119.51,0.00
a280,hhi_greedy_basic_adapK,0.00,7480,0,3610,274,138.48,0.00
a280,hhi_greedy_basic_adapK,0.50,7480,0,3493,274,139.72,0.00
a280,hhi_greedy_basic_adapK,1.00,7480,0,3493,274,139.72,0.00
a280,hhi_greedy_basic_adapK,1.50,7480,0,3493,274,139.72,0.00
a280,hhi_greedy_basic_adapK,2.00,7480,0,3493,274,139.72,0.00
a280,hhi_greedy_basic_adapK,2.50,7480,0,3493,274,139.72,0.00
a280,hhi_greedy_basic_adapK,3.00,7480,0,3493,274,139.72,0.00
a280,hhi_greedy_basic_adapK,3.50,7480,0,3493,274,139.72,0.00
a280,hhi_greedy_basic_adapK,4.00,7480,0,3493,274,139.72,0.00
a280,hhi_greedy_basic_adapK,5.00,7480,0,3493,274,139.72,0.00
a280,hhi_greedy_basic_adapK,7.00,7480,0,3493,274,139.72,0.00
a280,hhi_greedy_basic_adapK,10.00,7480,0,3493,274,139.72,0.00
a280,hhi_greedy_basic_adapK,25.00,7480,0,3248,276,138.65,0.00
a280,hhi_greedy_basic_adapK,50.00,7480,0,3190,273,135.07,0.00
a280,hhi_greedy_basic_adapK,75.00,7480,0,3190,273,135.07,0.00
a280,hhi_greedy_basic_adapK,100.00,7480,0,3310,273,135.44,0.00
a280,hhi_greedy_basic_adapK,200.00,7480,0,3394,276,139.08,0.00
xql662,hhi_greedy_basic_adapK,0.00,7480,0,3361,651,132.84,0.00
xql662,hhi_greedy_basic_adapK,0.50,7480,0,3336,650,133.83,0.00
xql662,hhi_greedy_basic_adapK,1.00,7480,0,3347,653,133.84,0.00
xql662,hhi_greedy_basic_adapK,1.50,7480,0,3290,654,134.41,0.00
xql662,hhi_greedy_basic_adapK,2.00,7480,0,3268,655,135.87,0.00
xql662,hhi_greedy_basic_adapK,2.50,7480,0,3361,655,134.68,0.00
xql662,hhi_greedy_basic_adapK,3.00,7480,0,3447,652,132.16,0.00
xql662,hhi_greedy_basic_adapK,3.50,7480,0,3333,654,136.67,0.00
xql662,hhi_greedy_basic_adapK,4.00,7480,0,3386,656,136.50,0.00
xql662,hhi_greedy_basic_adapK,5.00,7480,0,3397,656,136.31,0.00
xql662,hhi_greedy_basic_adapK,7.00,7480,0,3501,657,135.46,0.00
xql662,hhi_greedy_basic_adapK,10.00,7608,0,3411,656,136.36,0.00
xql662,hhi_greedy_basic_adapK,25.00,7608,0,3411,656,137.13,0.00
xql662,hhi_greedy_basic_adapK,50.00,7608,0,3573,657,138.15,0.00
xql662,hhi_greedy_basic_adapK,75.00,7608,0,4019,659,138.78,0.00
xql662,hhi_greedy_basic_adapK,100.00,7608,0,3682,659,138.83,0.00
xql662,hhi_greedy_basic_adapK,200.00,7608,0,3600,659,141.05,0.00
kz9976,hhi_greedy_basic_adapK,0.00,7608,9,1642459,9940,112.68,0.00
kz9976,hhi_greedy_basic_adapK,0.50,7608,8,1604811,9946,112.54,0.00
kz9976,hhi_greedy_basic_adapK,1.00,7608,8,1604866,9946,112.56,0.00
kz9976,hhi_greedy_basic_adapK,1.50,7608,8,1604031,9946,112.57,0.00
kz9976,hhi_greedy_basic_adapK,2.00,7608,9,1617796,9943,112.66,0.00
kz9976,hhi_greedy_basic_adapK,2.50,7608,8,1629193,9939,112.52,0.00
kz9976,hhi_greedy_basic_adapK,3.00,7608,10,1628417,9939,112.49,0.00
kz9976,hhi_greedy_basic_adapK,3.50,7608,9,1609416,9943,112.63,0.00
kz9976,hhi_greedy_basic_adapK,4.00,7608,9,1616422,9944,112.65,0.00
kz9976,hhi_greedy_basic_adapK,5.00,7608,7,1613818,9934,112.86,0.00
kz9976,hhi_greedy_basic_adapK,7.00,7608,8,1604140,9946,113.08,0.00
kz9976,hhi_greedy_basic_adapK,10.00,7608,9,1621763,9943,112.98,0.00
kz9976,hhi_greedy_basic_adapK,25.00,7608,9,1606665,9946,113.65,0.00
kz9976,hhi_greedy_basic_adapK,50.00,7608,9,1610061,9948,115.34,0.00
kz9976,hhi_greedy_basic_adapK,75.00,7608,7,1598191,9946,115.40,0.00
kz9976,hhi_greedy_basic_adapK,100.00,7608,7,1625333,9948,115.90,0.00
kz9976,hhi_greedy_basic_adapK,200.00,7608,8,1624222,9952,116.99,0.00
ei8246,hhi_greedy_basic_adapK,0.00,7608,14,268519,8233,117.09,0.00
ei8246,hhi_greedy_basic_adapK,0.50,7608,13,267226,8233,117.30,0.00
ei8246,hhi_greedy_basic_adapK,1.00,7608,13,266662,8232,116.99,0.00
ei8246,hhi_greedy_basic_adapK,1.50,7608,12,268079,8238,117.73,0.00
ei8246,hhi_greedy_basic_adapK,2.00,7608,13,269462,8234,117.33,0.00
ei8246,hhi_greedy_basic_adapK,2.50,7608,13,265143,8230,117.59,0.00
ei8246,hhi_greedy_basic_adapK,3.00,7608,12,264595,8236,117.79,0.00
ei8246,hhi_greedy_basic_adapK,3.50,7608,13,265649,8236,117.61,0.00
ei8246,hhi_greedy_basic_adapK,4.00,7608,15,268257,8235,117.83,0.00
ei8246,hhi_greedy_basic_adapK,5.00,7608,15,265654,8233,118.23,0.00
ei8246,hhi_greedy_basic_adapK,7.00,7608,13,267133,8235,118.80,0.00
ei8246,hhi_greedy_basic_adapK,10.00,7608,12,272360,8238,119.67,0.00
ei8246,hhi_greedy_basic_adapK,25.00,7608,12,275209,8235,121.91,0.00
ei8246,hhi_greedy_basic_adapK,50.00,7608,13,277136,8233,123.85,0.00
ei8246,hhi_greedy_basic_adapK,75.00,7608,13,280175,8239,125.30,0.00
ei8246,hhi_greedy_basic_adapK,100.00,7608,14,287780,8236,125.49,0.00
ei8246,hhi_greedy_basic_adapK,200.00,7608,13,293754,8241,128.32,0.00
vm22775,hhi_greedy_basic_adapK,0.00,7608,22,865195,22305,116.19,0.00
vm22775,hhi_greedy_basic_adapK,0.50,7608,16,870758,22354,117.12,0.00
vm22775,hhi_greedy_basic_adapK,1.00,7608,17,871760,22360,117.05,0.00
vm22775,hhi_greedy_basic_adapK,1.50,7608,17,873151,22368,117.07,0.00
vm22775,hhi_greedy_basic_adapK,2.00,7608,24,862263,22355,117.24,0.00
vm22775,hhi_greedy_basic_adapK,2.50,7608,23,859860,22364,117.49,0.00
vm22775,hhi_greedy_basic_adapK,3.00,7608,20,861346,22367,117.57,0.00
vm22775,hhi_greedy_basic_adapK,3.50,7608,21,867457,22372,117.44,0.00
vm22775,hhi_greedy_basic_adapK,4.00,7608,20,864640,22379,117.53,0.00
vm22775,hhi_greedy_basic_adapK,5.00,7608,24,864996,22385,117.75,0.00
vm22775,hhi_greedy_basic_adapK,7.00,7608,25,867915,22385,118.04,0.00
vm22775,hhi_greedy_basic_adapK,10.00,7608,24,875998,22377,118.50,0.00
vm22775,hhi_greedy_basic_adapK,25.00,7608,18,886661,22431,119.51,0.00
vm22775,hhi_greedy_basic_adapK,50.00,7608,18,888588,22516,120.49,0.00
vm22775,hhi_greedy_basic_adapK,75.00,7608,29,899983,22516,121.05,0.00
vm22775,hhi_greedy_basic_adapK,100.00,7608,29,903108,22524,121.55,0.00
vm22775,hhi_greedy_basic_adapK,200.00,7608,22,928023,22587,122.51,0.00
ja9847,hhi_greedy_basic_adapK,0.00,7608,11,791981,9748,114.65,0.00
ja9847,hhi_greedy_basic_adapK,0.50,7608,10,793344,9762,115.21,0.00
ja9847,hhi_greedy_basic_adapK,1.00,7608,9,779125,9762,115.31,0.00
ja9847,hhi_greedy_basic_adapK,1.50,7608,9,778376,9764,115.43,0.00
ja9847,hhi_greedy_basic_adapK,2.00,7608,10,781028,9757,116.13,0.00
ja9847,hhi_greedy_basic_adapK,2.50,7608,9,785066,9759,116.19,0.00
ja9847,hhi_greedy_basic_adapK,3.00,7608,10,781883,9762,116.14,0.00
ja9847,hhi_greedy_basic_adapK,3.50,7608,9,782315,9765,116.17,0.00
ja9847,hhi_greedy_basic_adapK,4.00,7608,11,789436,9760,116.49,0.00
ja9847,hhi_greedy_basic_adapK,5.00,7608,10,791926,9769,116.69,0.00
ja9847,hhi_greedy_basic_adapK,7.00,7608,9,792851,9766,116.91,0.00
ja9847,hhi_greedy_basic_adapK,10.00,7608,9,784545,9777,117.24,0.00
ja9847,hhi_greedy_basic_adapK,25.00,7608,9,812703,9793,118.14,0.00
ja9847,hhi_greedy_basic_adapK,50.00,7608,10,813823,9814,119.92,0.00
ja9847,hhi_greedy_basic_adapK,75.00,7608,10,826414,9808,121.13,0.00
ja9847,hhi_greedy_basic_adapK,100.00,7608,9,804789,9818,121.41,0.00
ja9847,hhi_greedy_basic_adapK,200.00,7608,9,843032,9817,122.14,0.00
mona-lisa100K,hhi_greedy_basic_adapK,0.00,7608,433,6910842,99972,119.21,0.00
mona-lisa100K,hhi_greedy_basic_adapK,0.50,7608,299,6886658,99968,119.37,0.00
mona-lisa100K,hhi_greedy_basic_adapK,1.00,7608,356,6906333,99962,119.38,0.00
mona-lisa100K,hhi_greedy_basic_adapK,1.50,7608,318,6889962,99969,119.42,0.00
mona-lisa100K,hhi_greedy_basic_adapK,2.00,7608,316,6886205,99958,119.61,0.00
mona-lisa100K,hhi_greedy_basic_adapK,2.50,7608,361,6907669,99968,119.84,0.00
mona-lisa100K,hhi_greedy_basic_adapK,3.00,7608,335,6912825,99964,119.74,0.00
mona-lisa100K,hhi_greedy_basic_adapK,3.50,7608,301,6887963,99965,119.96,0.00
mona-lisa100K,hhi_greedy_basic_adapK,4.00,7608,336,6913022,99956,119.97,0.00
mona-lisa100K,hhi_greedy_basic_adapK,5.00,7608,338,6893624,99958,120.04,0.00
mona-lisa100K,hhi_greedy_basic_adapK,7.00,7608,373,6911461,99963,120.32,0.00
mona-lisa100K,hhi_greedy_basic_adapK,10.00,7608,340,6914930,99967,120.82,0.00
mona-lisa100K,hhi_greedy_basic_adapK,25.00,7608,357,6921040,99968,122.51,0.00
mona-lisa100K,hhi_greedy_basic_adapK,50.00,7608,350,6954377,99959,123.89,0.00
mona-lisa100K,hhi_greedy_basic_adapK,75.00,7608,313,6962642,99957,125.21,0.00
mona-lisa100K,hhi_greedy_basic_adapK,100.00,7608,334,6990754,99970,125.85,0.00
mona-lisa100K,hhi_greedy_basic_adapK,200.00,7608,318,7034898,99973,127.95,0.00
