Dataset,Algorithm,Lambda,MemoryKB,TimeMS,TourLength,Bends,AvgBendAngle,Accuracy%
a20,hhi_greedy_anglePenalty,0,9712,0,370,19,113.22,0.00
a20,hhi_greedy_anglePenalty,0.50,9712,0,370,19,113.22,0.00
a20,hhi_greedy_anglePenalty,1.00,9712,0,370,19,113.22,0.00
a20,hhi_greedy_anglePenalty,1.50,9712,0,370,19,113.22,0.00
a20,hhi_greedy_anglePenalty,2.00,9712,0,370,19,113.22,0.00
a20,hhi_greedy_anglePenalty,2.50,9712,0,370,19,113.22,0.00
a20,hhi_greedy_anglePenalty,3.00,9712,0,370,19,113.22,0.00
a20,hhi_greedy_anglePenalty,3.50,9712,0,370,19,113.22,0.00
a20,hhi_greedy_anglePenalty,4.00,9712,0,370,19,113.22,0.00
a20,hhi_greedy_anglePenalty,5.00,9712,0,370,19,113.22,0.00
a20,hhi_greedy_anglePenalty,7.00,9712,0,370,19,113.22,0.00
a20,hhi_greedy_anglePenalty,10.00,9712,0,370,19,113.22,0.00
a20,hhi_greedy_anglePenalty,25.00,9712,0,370,19,113.22,0.00
a20,hhi_greedy_anglePenalty,50.00,9712,0,370,19,113.22,0.00
a20,hhi_greedy_anglePenalty,75.00,9712,0,376,19,114.22,0.00
a20,hhi_greedy_anglePenalty,100.00,9712,0,362,19,128.43,0.00
a20,hhi_greedy_anglePenalty,200.00,9712,0,362,19,128.43,0.00
a280,hhi_greedy_anglePenalty,0.00,9712,0,3358,274,134.27,0.00
a280,hhi_greedy_anglePenalty,0.50,9712,0,3358,274,134.27,0.00
a280,hhi_greedy_anglePenalty,1.00,9712,0,3358,274,134.27,0.00
a280,hhi_greedy_anglePenalty,1.50,9712,0,3358,274,134.27,0.00
a280,hhi_greedy_anglePenalty,2.00,9712,0,3358,274,134.27,0.00
a280,hhi_greedy_anglePenalty,2.50,9712,0,3358,274,134.27,0.00
a280,hhi_greedy_anglePenalty,3.00,9712,0,3358,274,134.27,0.00
a280,hhi_greedy_anglePenalty,3.50,9712,0,3358,274,134.27,0.00
a280,hhi_greedy_anglePenalty,4.00,9712,0,3358,274,134.27,0.00
a280,hhi_greedy_anglePenalty,5.00,9712,0,3358,274,134.27,0.00
a280,hhi_greedy_anglePenalty,7.00,9712,0,3358,274,134.27,0.00
a280,hhi_greedy_anglePenalty,10.00,9712,0,3358,274,134.27,0.00
a280,hhi_greedy_anglePenalty,25.00,9712,0,3358,274,134.27,0.00
a280,hhi_greedy_anglePenalty,50.00,9712,0,3377,274,136.04,0.00
a280,hhi_greedy_anglePenalty,75.00,9712,0,3377,274,136.04,0.00
a280,hhi_greedy_anglePenalty,100.00,9712,0,3377,274,136.04,0.00
a280,hhi_greedy_anglePenalty,200.00,9712,0,3377,274,136.04,0.00
xql662,hhi_greedy_anglePenalty,0.00,9712,0,3332,651,131.13,0.00
xql662,hhi_greedy_anglePenalty,0.50,9712,0,3451,650,129.94,0.00
xql662,hhi_greedy_anglePenalty,1.00,9712,0,3451,650,129.94,0.00
xql662,hhi_greedy_anglePenalty,1.50,9712,0,3625,649,130.10,0.00
xql662,hhi_greedy_anglePenalty,2.00,9712,0,3640,652,130.75,0.00
xql662,hhi_greedy_anglePenalty,2.50,9712,0,3700,649,131.64,0.00
xql662,hhi_greedy_anglePenalty,3.00,9712,0,3683,649,131.57,0.00
xql662,hhi_greedy_anglePenalty,3.50,9712,0,3683,649,131.57,0.00
xql662,hhi_greedy_anglePenalty,4.00,9712,0,3271,655,131.89,0.00
xql662,hhi_greedy_anglePenalty,5.00,9712,0,3290,653,131.23,0.00
xql662,hhi_greedy_anglePenalty,7.00,9712,0,3286,653,132.69,0.00
xql662,hhi_greedy_anglePenalty,10.00,9712,0,3676,655,131.47,0.00
xql662,hhi_greedy_anglePenalty,25.00,9712,0,3341,658,136.02,0.00
xql662,hhi_greedy_anglePenalty,50.00,9712,0,3317,660,134.56,0.00
xql662,hhi_greedy_anglePenalty,75.00,9712,0,3711,660,133.39,0.00
xql662,hhi_greedy_anglePenalty,100.00,9712,0,3530,661,135.50,0.00
xql662,hhi_greedy_anglePenalty,200.00,9712,0,3664,660,135.78,0.00
kz9976,hhi_greedy_anglePenalty,0.00,9712,12,1558938,9946,114.02,0.00
kz9976,hhi_greedy_anglePenalty,0.50,9712,11,1559046,9956,114.35,0.00
kz9976,hhi_greedy_anglePenalty,1.00,9712,13,1559046,9956,114.35,0.00
kz9976,hhi_greedy_anglePenalty,1.50,9712,12,1559100,9956,114.34,0.00
kz9976,hhi_greedy_anglePenalty,2.00,9712,12,1559138,9956,114.35,0.00
kz9976,hhi_greedy_anglePenalty,2.50,9712,11,1555566,9957,114.31,0.00
kz9976,hhi_greedy_anglePenalty,3.00,9712,11,1555566,9957,114.31,0.00
kz9976,hhi_greedy_anglePenalty,3.50,9712,13,1555584,9957,114.30,0.00
kz9976,hhi_greedy_anglePenalty,4.00,9712,13,1531337,9959,114.56,0.00
kz9976,hhi_greedy_anglePenalty,5.00,9712,14,1532513,9958,114.60,0.00
kz9976,hhi_greedy_anglePenalty,7.00,9712,11,1537524,9953,114.65,0.00
kz9976,hhi_greedy_anglePenalty,10.00,9712,11,1538012,9959,114.37,0.00
kz9976,hhi_greedy_anglePenalty,25.00,9712,12,1527048,9958,114.48,0.00
kz9976,hhi_greedy_anglePenalty,50.00,9712,11,1551178,9961,115.20,0.00
kz9976,hhi_greedy_anglePenalty,75.00,9712,11,1530792,9959,115.43,0.00
kz9976,hhi_greedy_anglePenalty,100.00,9712,11,1543020,9962,115.61,0.00
kz9976,hhi_greedy_anglePenalty,200.00,9712,11,1561972,9964,116.01,0.00
ei8246,hhi_greedy_anglePenalty,0.00,9712,10,280002,8232,115.22,0.00
ei8246,hhi_greedy_anglePenalty,0.50,9712,9,272265,8230,115.59,0.00
ei8246,hhi_greedy_anglePenalty,1.00,9712,9,274191,8231,115.31,0.00
ei8246,hhi_greedy_anglePenalty,1.50,9712,9,277695,8228,115.34,0.00
ei8246,hhi_greedy_anglePenalty,2.00,9712,10,276188,8230,115.26,0.00
ei8246,hhi_greedy_anglePenalty,2.50,9712,10,276126,8232,115.93,0.00
ei8246,hhi_greedy_anglePenalty,3.00,9712,9,276300,8230,115.64,0.00
ei8246,hhi_greedy_anglePenalty,3.50,9712,11,277135,8231,115.85,0.00
ei8246,hhi_greedy_anglePenalty,4.00,9712,10,276954,8234,115.63,0.00
ei8246,hhi_greedy_anglePenalty,5.00,9712,9,280599,8234,115.96,0.00
ei8246,hhi_greedy_anglePenalty,7.00,9712,9,277371,8232,115.91,0.00
ei8246,hhi_greedy_anglePenalty,10.00,9712,10,279532,8229,115.41,0.00
ei8246,hhi_greedy_anglePenalty,25.00,9712,11,274616,8232,116.93,0.00
ei8246,hhi_greedy_anglePenalty,50.00,9712,11,277415,8239,117.57,0.00
ei8246,hhi_greedy_anglePenalty,75.00,9712,11,278969,8239,118.03,0.00
ei8246,hhi_greedy_anglePenalty,100.00,9712,13,285649,8241,118.77,0.00
ei8246,hhi_greedy_anglePenalty,200.00,9712,11,282161,8242,119.38,0.00
vm22775,hhi_greedy_anglePenalty,0.00,9712,29,823018,22387,116.33,0.00
vm22775,hhi_greedy_anglePenalty,0.50,9712,28,821213,22422,117.54,0.00
vm22775,hhi_greedy_anglePenalty,1.00,9712,28,813281,22464,117.77,0.00
vm22775,hhi_greedy_anglePenalty,1.50,9712,31,823740,22453,117.70,0.00
vm22775,hhi_greedy_anglePenalty,2.00,9712,34,819368,22460,117.95,0.00
vm22775,hhi_greedy_anglePenalty,2.50,9712,37,825371,22460,117.94,0.00
vm22775,hhi_greedy_anglePenalty,3.00,9712,36,815987,22471,117.68,0.00
vm22775,hhi_greedy_anglePenalty,3.50,9712,50,816402,22471,117.64,0.00
vm22775,hhi_greedy_anglePenalty,4.00,9712,38,821855,22473,117.75,0.00
vm22775,hhi_greedy_anglePenalty,5.00,9712,34,816635,22478,117.70,0.00
vm22775,hhi_greedy_anglePenalty,7.00,9712,37,820565,22500,117.65,0.00
vm22775,hhi_greedy_anglePenalty,10.00,9712,30,822955,22519,118.01,0.00
vm22775,hhi_greedy_anglePenalty,25.00,9712,30,821970,22586,118.40,0.00
vm22775,hhi_greedy_anglePenalty,50.00,9712,35,849230,22622,118.48,0.00
vm22775,hhi_greedy_anglePenalty,75.00,9712,30,829996,22643,119.00,0.00
vm22775,hhi_greedy_anglePenalty,100.00,9712,28,840031,22656,119.13,0.00
vm22775,hhi_greedy_anglePenalty,200.00,9712,29,846846,22708,119.83,0.00
ja9847,hhi_greedy_anglePenalty,0.00,9712,12,751944,9782,116.44,0.00
ja9847,hhi_greedy_anglePenalty,0.50,9712,12,737463,9788,116.81,0.00
ja9847,hhi_greedy_anglePenalty,1.00,9712,14,741265,9790,117.04,0.00
ja9847,hhi_greedy_anglePenalty,1.50,9712,12,728477,9789,117.00,0.00
ja9847,hhi_greedy_anglePenalty,2.00,9712,12,743831,9791,116.96,0.00
ja9847,hhi_greedy_anglePenalty,2.50,9712,12,743818,9791,116.98,0.00
ja9847,hhi_greedy_anglePenalty,3.00,9712,11,733185,9792,117.16,0.00
ja9847,hhi_greedy_anglePenalty,3.50,9712,12,732656,9792,117.14,0.00
ja9847,hhi_greedy_anglePenalty,4.00,9712,13,737858,9792,117.17,0.00
ja9847,hhi_greedy_anglePenalty,5.00,9712,13,736417,9796,117.28,0.00
ja9847,hhi_greedy_anglePenalty,7.00,9712,13,739674,9799,117.59,0.00
ja9847,hhi_greedy_anglePenalty,10.00,9712,14,726017,9806,117.57,0.00
ja9847,hhi_greedy_anglePenalty,25.00,9712,13,755371,9808,118.56,0.00
ja9847,hhi_greedy_anglePenalty,50.00,9712,12,736993,9824,119.39,0.00
ja9847,hhi_greedy_anglePenalty,75.00,9712,12,741494,9819,119.46,0.00
ja9847,hhi_greedy_anglePenalty,100.00,9712,12,732856,9828,119.94,0.00
ja9847,hhi_greedy_anglePenalty,200.00,9712,12,754113,9836,120.70,0.00
mona-lisa100K,hhi_greedy_anglePenalty,0.00,9712,285,6999950,99959,116.41,0.00
mona-lisa100K,hhi_greedy_anglePenalty,0.50,9712,255,6986566,99950,116.45,0.00
mona-lisa100K,hhi_greedy_anglePenalty,1.00,9712,244,7008826,99967,116.55,0.00
mona-lisa100K,hhi_greedy_anglePenalty,1.50,9712,219,6982458,99963,116.33,0.00
mona-lisa100K,hhi_greedy_anglePenalty,2.00,9712,255,6993063,99949,116.50,0.00
mona-lisa100K,hhi_greedy_anglePenalty,2.50,9712,279,6993289,99947,116.61,0.00
mona-lisa100K,hhi_greedy_anglePenalty,3.00,9712,228,6993637,99955,116.54,0.00
mona-lisa100K,hhi_greedy_anglePenalty,3.50,9712,245,7016462,99959,116.45,0.00
mona-lisa100K,hhi_greedy_anglePenalty,4.00,9712,274,7017187,99946,116.46,0.00
mona-lisa100K,hhi_greedy_anglePenalty,5.00,9712,246,7000610,99964,116.34,0.00
mona-lisa100K,hhi_greedy_anglePenalty,7.00,9712,261,6998853,99942,116.36,0.00
mona-lisa100K,hhi_greedy_anglePenalty,10.00,9712,235,6991552,99948,116.63,0.00
mona-lisa100K,hhi_greedy_anglePenalty,25.00,9712,266,7001703,99945,116.80,0.00
mona-lisa100K,hhi_greedy_anglePenalty,50.00,9712,258,7001932,99959,117.09,0.00
mona-lisa100K,hhi_greedy_anglePenalty,75.00,9712,216,6995048,99953,117.41,0.00
mona-lisa100K,hhi_greedy_anglePenalty,100.00,9712,217,7003415,99966,117.81,0.00
mona-lisa100K,hhi_greedy_anglePenalty,200.00,9712,254,7015462,99966,118.54,0.00
