Dataset,Algorithm,Lambda,MemoryKB,TimeMS,TourLength,Bends,AvgBendAngle,Accuracy%
a20,hhi_greedy_basic_adapK_9CellMean_hull,0,9712,0,370,19,113.22,0.00
a20,hhi_greedy_basic_adapK_9CellMean_hull,0.50,9712,0,370,19,113.22,0.00
a20,hhi_greedy_basic_adapK_9CellMean_hull,1.00,9712,0,370,19,113.22,0.00
a20,hhi_greedy_basic_adapK_9CellMean_hull,1.50,9712,0,370,19,113.22,0.00
a20,hhi_greedy_basic_adapK_9CellMean_hull,2.00,9712,0,370,19,113.22,0.00
a20,hhi_greedy_basic_adapK_9CellMean_hull,2.50,9712,0,370,19,113.22,0.00
a20,hhi_greedy_basic_adapK_9CellMean_hull,3.00,9712,0,370,19,113.22,0.00
a20,hhi_greedy_basic_adapK_9CellMean_hull,3.50,9712,0,370,19,113.22,0.00
a20,hhi_greedy_basic_adapK_9CellMean_hull,4.00,9712,0,370,19,113.22,0.00
a20,hhi_greedy_basic_adapK_9CellMean_hull,5.00,9712,0,370,19,113.22,0.00
a20,hhi_greedy_basic_adapK_9CellMean_hull,7.00,9712,0,370,19,113.22,0.00
a20,hhi_greedy_basic_adapK_9CellMean_hull,10.00,9712,0,370,19,113.22,0.00
a20,hhi_greedy_basic_adapK_9CellMean_hull,25.00,9712,0,370,19,113.22,0.00
a20,hhi_greedy_basic_adapK_9CellMean_hull,50.00,9712,0,370,19,113.22,0.00
a20,hhi_greedy_basic_adapK_9CellMean_hull,75.00,9712,0,370,19,113.22,0.00
a20,hhi_greedy_basic_adapK_9CellMean_hull,100.00,9712,0,370,19,113.22,0.00
a20,hhi_greedy_basic_adapK_9CellMean_hull,200.00,9712,0,362,19,126.75,0.00
a280,hhi_greedy_basic_adapK_9CellMean_hull,0.00,9712,0,3419,273,134.69,0.00
a280,hhi_greedy_basic_adapK_9CellMean_hull,0.50,9712,0,3427,273,134.69,0.00
a280,hhi_greedy_basic_adapK_9CellMean_hull,1.00,9712,0,3427,273,134.69,0.00
a280,hhi_greedy_basic_adapK_9CellMean_hull,1.50,9712,0,3427,273,134.69,0.00
a280,hhi_greedy_basic_adapK_9CellMean_hull,2.00,9712,0,3427,273,134.69,0.00
a280,hhi_greedy_basic_adapK_9CellMean_hull,2.50,9712,0,3427,273,134.69,0.00
a280,hhi_greedy_basic_adapK_9CellMean_hull,3.00,9712,0,3427,273,134.69,0.00
a280,hhi_greedy_basic_adapK_9CellMean_hull,3.50,9712,0,3427,273,134.69,0.00
a280,hhi_greedy_basic_adapK_9CellMean_hull,4.00,9712,0,3427,273,134.69,0.00
a280,hhi_greedy_basic_adapK_9CellMean_hull,5.00,9712,0,3427,273,134.69,0.00
a280,hhi_greedy_basic_adapK_9CellMean_hull,7.00,9712,0,3427,273,134.69,0.00
a280,hhi_greedy_basic_adapK_9CellMean_hull,10.00,9712,0,3427,273,134.69,0.00
a280,hhi_greedy_basic_adapK_9CellMean_hull,25.00,9712,0,3360,273,133.53,0.00
a280,hhi_greedy_basic_adapK_9CellMean_hull,50.00,9712,0,3395,274,138.02,0.00
a280,hhi_greedy_basic_adapK_9CellMean_hull,75.00,9712,0,3395,274,138.02,0.00
a280,hhi_greedy_basic_adapK_9CellMean_hull,100.00,9712,0,3395,274,138.02,0.00
a280,hhi_greedy_basic_adapK_9CellMean_hull,200.00,9712,0,3349,272,134.33,0.00
xql662,hhi_greedy_basic_adapK_9CellMean_hull,0.00,9712,0,3468,646,128.09,0.00
xql662,hhi_greedy_basic_adapK_9CellMean_hull,0.50,9712,0,3442,646,129.29,0.00
xql662,hhi_greedy_basic_adapK_9CellMean_hull,1.00,9712,0,3478,645,130.05,0.00
xql662,hhi_greedy_basic_adapK_9CellMean_hull,1.50,9712,0,3563,653,129.89,0.00
xql662,hhi_greedy_basic_adapK_9CellMean_hull,2.00,9712,0,3624,653,129.59,0.00
xql662,hhi_greedy_basic_adapK_9CellMean_hull,2.50,9712,0,3601,652,129.61,0.00
xql662,hhi_greedy_basic_adapK_9CellMean_hull,3.00,9712,0,3594,654,129.87,0.00
xql662,hhi_greedy_basic_adapK_9CellMean_hull,3.50,9712,0,3531,652,130.40,0.00
xql662,hhi_greedy_basic_adapK_9CellMean_hull,4.00,9712,0,3668,655,129.73,0.00
xql662,hhi_greedy_basic_adapK_9CellMean_hull,5.00,9712,0,3674,655,129.83,0.00
xql662,hhi_greedy_basic_adapK_9CellMean_hull,7.00,9712,0,3507,655,131.72,0.00
xql662,hhi_greedy_basic_adapK_9CellMean_hull,10.00,9712,0,3595,657,132.58,0.00
xql662,hhi_greedy_basic_adapK_9CellMean_hull,25.00,9712,0,3794,655,133.77,0.00
xql662,hhi_greedy_basic_adapK_9CellMean_hull,50.00,9712,0,3690,658,135.17,0.00
xql662,hhi_greedy_basic_adapK_9CellMean_hull,75.00,9712,0,3760,659,137.07,0.00
xql662,hhi_greedy_basic_adapK_9CellMean_hull,100.00,9712,0,4045,659,134.08,0.00
xql662,hhi_greedy_basic_adapK_9CellMean_hull,200.00,9712,0,3745,659,135.46,0.00
kz9976,hhi_greedy_basic_adapK_9CellMean_hull,0.00,9712,6,1674745,9937,111.69,0.00
kz9976,hhi_greedy_basic_adapK_9CellMean_hull,0.50,9712,8,1662252,9942,111.99,0.00
kz9976,hhi_greedy_basic_adapK_9CellMean_hull,1.00,9712,7,1662307,9942,112.01,0.00
kz9976,hhi_greedy_basic_adapK_9CellMean_hull,1.50,9712,6,1661399,9942,112.02,0.00
kz9976,hhi_greedy_basic_adapK_9CellMean_hull,2.00,9712,7,1662865,9941,111.92,0.00
kz9976,hhi_greedy_basic_adapK_9CellMean_hull,2.50,9712,7,1662404,9942,111.90,0.00
kz9976,hhi_greedy_basic_adapK_9CellMean_hull,3.00,9712,7,1661932,9942,111.86,0.00
kz9976,hhi_greedy_basic_adapK_9CellMean_hull,3.50,9712,8,1661726,9942,111.89,0.00
kz9976,hhi_greedy_basic_adapK_9CellMean_hull,4.00,9712,7,1678064,9945,112.11,0.00
kz9976,hhi_greedy_basic_adapK_9CellMean_hull,5.00,9712,9,1663189,9941,112.15,0.00
kz9976,hhi_greedy_basic_adapK_9CellMean_hull,7.00,9712,8,1674327,9942,112.38,0.00
kz9976,hhi_greedy_basic_adapK_9CellMean_hull,10.00,9712,7,1686183,9948,111.96,0.00
kz9976,hhi_greedy_basic_adapK_9CellMean_hull,25.00,9712,8,1660533,9946,113.14,0.00
kz9976,hhi_greedy_basic_adapK_9CellMean_hull,50.00,9712,9,1664030,9952,113.99,0.00
kz9976,hhi_greedy_basic_adapK_9CellMean_hull,75.00,9712,8,1679746,9958,113.60,0.00
kz9976,hhi_greedy_basic_adapK_9CellMean_hull,100.00,9712,6,1683048,9946,114.00,0.00
kz9976,hhi_greedy_basic_adapK_9CellMean_hull,200.00,9712,6,1684927,9954,116.55,0.00
ei8246,hhi_greedy_basic_adapK_9CellMean_hull,0.00,9712,11,278826,8229,114.75,0.00
ei8246,hhi_greedy_basic_adapK_9CellMean_hull,0.50,9712,11,279804,8229,114.39,0.00
ei8246,hhi_greedy_basic_adapK_9CellMean_hull,1.00,9712,9,279831,8229,114.87,0.00
ei8246,hhi_greedy_basic_adapK_9CellMean_hull,1.50,9712,8,278881,8233,115.24,0.00
ei8246,hhi_greedy_basic_adapK_9CellMean_hull,2.00,9712,9,280154,8229,114.90,0.00
ei8246,hhi_greedy_basic_adapK_9CellMean_hull,2.50,9712,9,281412,8227,114.92,0.00
ei8246,hhi_greedy_basic_adapK_9CellMean_hull,3.00,9712,10,281602,8228,115.26,0.00
ei8246,hhi_greedy_basic_adapK_9CellMean_hull,3.50,9712,9,283741,8221,115.15,0.00
ei8246,hhi_greedy_basic_adapK_9CellMean_hull,4.00,9712,9,284306,8225,115.12,0.00
ei8246,hhi_greedy_basic_adapK_9CellMean_hull,5.00,9712,9,283425,8231,115.89,0.00
ei8246,hhi_greedy_basic_adapK_9CellMean_hull,7.00,9712,10,284611,8233,115.73,0.00
ei8246,hhi_greedy_basic_adapK_9CellMean_hull,10.00,9712,10,283627,8225,116.36,0.00
ei8246,hhi_greedy_basic_adapK_9CellMean_hull,25.00,9712,9,285226,8225,118.14,0.00
ei8246,hhi_greedy_basic_adapK_9CellMean_hull,50.00,9712,10,290342,8234,119.71,0.00
ei8246,hhi_greedy_basic_adapK_9CellMean_hull,75.00,9712,8,292126,8235,121.37,0.00
ei8246,hhi_greedy_basic_adapK_9CellMean_hull,100.00,9712,10,296375,8235,122.30,0.00
ei8246,hhi_greedy_basic_adapK_9CellMean_hull,200.00,9712,10,304130,8238,124.43,0.00
vm22775,hhi_greedy_basic_adapK_9CellMean_hull,0.00,9712,23,885141,22245,115.40,0.00
vm22775,hhi_greedy_basic_adapK_9CellMean_hull,0.50,9712,24,904823,22304,116.73,0.00
vm22775,hhi_greedy_basic_adapK_9CellMean_hull,1.00,9712,22,902523,22294,116.78,0.00
vm22775,hhi_greedy_basic_adapK_9CellMean_hull,1.50,9712,24,902405,22288,116.75,0.00
vm22775,hhi_greedy_basic_adapK_9CellMean_hull,2.00,9712,24,901310,22292,116.79,0.00
vm22775,hhi_greedy_basic_adapK_9CellMean_hull,2.50,9712,24,902825,22309,116.73,0.00
vm22775,hhi_greedy_basic_adapK_9CellMean_hull,3.00,9712,23,901108,22319,116.78,0.00
vm22775,hhi_greedy_basic_adapK_9CellMean_hull,3.50,9712,25,896788,22327,116.77,0.00
vm22775,hhi_greedy_basic_adapK_9CellMean_hull,4.00,9712,22,897781,22338,116.94,0.00
vm22775,hhi_greedy_basic_adapK_9CellMean_hull,5.00,9712,23,898427,22339,117.14,0.00
vm22775,hhi_greedy_basic_adapK_9CellMean_hull,7.00,9712,26,907657,22350,117.43,0.00
vm22775,hhi_greedy_basic_adapK_9CellMean_hull,10.00,9712,16,896422,22344,117.80,0.00
vm22775,hhi_greedy_basic_adapK_9CellMean_hull,25.00,9712,21,900931,22395,118.95,0.00
vm22775,hhi_greedy_basic_adapK_9CellMean_hull,50.00,9712,22,895743,22477,119.67,0.00
vm22775,hhi_greedy_basic_adapK_9CellMean_hull,75.00,9712,18,922309,22501,120.18,0.00
vm22775,hhi_greedy_basic_adapK_9CellMean_hull,100.00,9712,17,924646,22529,120.34,0.00
vm22775,hhi_greedy_basic_adapK_9CellMean_hull,200.00,9712,18,931019,22581,121.31,0.00
ja9847,hhi_greedy_basic_adapK_9CellMean_hull,0.00,9712,7,834740,9757,113.78,0.00
ja9847,hhi_greedy_basic_adapK_9CellMean_hull,0.50,9712,8,816847,9762,114.73,0.00
ja9847,hhi_greedy_basic_adapK_9CellMean_hull,1.00,9712,7,822148,9759,114.65,0.00
ja9847,hhi_greedy_basic_adapK_9CellMean_hull,1.50,9712,8,822691,9757,114.85,0.00
ja9847,hhi_greedy_basic_adapK_9CellMean_hull,2.00,9712,7,822822,9763,115.04,0.00
ja9847,hhi_greedy_basic_adapK_9CellMean_hull,2.50,9712,6,823318,9764,115.30,0.00
ja9847,hhi_greedy_basic_adapK_9CellMean_hull,3.00,9712,7,817179,9767,115.39,0.00
ja9847,hhi_greedy_basic_adapK_9CellMean_hull,3.50,9712,7,816916,9767,115.65,0.00
ja9847,hhi_greedy_basic_adapK_9CellMean_hull,4.00,9712,6,821014,9767,115.90,0.00
ja9847,hhi_greedy_basic_adapK_9CellMean_hull,5.00,9712,7,806514,9771,115.69,0.00
ja9847,hhi_greedy_basic_adapK_9CellMean_hull,7.00,9712,6,806619,9773,116.10,0.00
ja9847,hhi_greedy_basic_adapK_9CellMean_hull,10.00,9712,8,823881,9778,116.35,0.00
ja9847,hhi_greedy_basic_adapK_9CellMean_hull,25.00,9712,9,821664,9787,117.71,0.00
ja9847,hhi_greedy_basic_adapK_9CellMean_hull,50.00,9712,9,848413,9813,119.58,0.00
ja9847,hhi_greedy_basic_adapK_9CellMean_hull,75.00,9712,7,844770,9810,120.19,0.00
ja9847,hhi_greedy_basic_adapK_9CellMean_hull,100.00,9712,8,824059,9808,120.68,0.00
ja9847,hhi_greedy_basic_adapK_9CellMean_hull,200.00,9712,7,860587,9821,121.34,0.00
mona-lisa100K,hhi_greedy_basic_adapK_9CellMean_hull,0.00,9712,331,6983289,99948,116.70,0.00
mona-lisa100K,hhi_greedy_basic_adapK_9CellMean_hull,0.50,9712,295,6979596,99948,116.73,0.00
mona-lisa100K,hhi_greedy_basic_adapK_9CellMean_hull,1.00,9712,341,6987561,99952,116.94,0.00
mona-lisa100K,hhi_greedy_basic_adapK_9CellMean_hull,1.50,9712,265,6983492,99953,117.02,0.00
mona-lisa100K,hhi_greedy_basic_adapK_9CellMean_hull,2.00,9712,304,6979036,99954,116.92,0.00
mona-lisa100K,hhi_greedy_basic_adapK_9CellMean_hull,2.50,9712,356,6985517,99952,117.16,0.00
mona-lisa100K,hhi_greedy_basic_adapK_9CellMean_hull,3.00,9712,279,6975219,99945,117.22,0.00
mona-lisa100K,hhi_greedy_basic_adapK_9CellMean_hull,3.50,9712,305,6979003,99964,117.27,0.00
mona-lisa100K,hhi_greedy_basic_adapK_9CellMean_hull,4.00,9712,299,6974516,99962,117.22,0.00
mona-lisa100K,hhi_greedy_basic_adapK_9CellMean_hull,5.00,9712,382,7000362,99950,117.47,0.00
mona-lisa100K,hhi_greedy_basic_adapK_9CellMean_hull,7.00,9712,277,6998813,99956,117.89,0.00
mona-lisa100K,hhi_greedy_basic_adapK_9CellMean_hull,10.00,9712,263,6969885,99955,117.98,0.00
mona-lisa100K,hhi_greedy_basic_adapK_9CellMean_hull,25.00,9712,269,6983798,99951,119.64,0.00
mona-lisa100K,hhi_greedy_basic_adapK_9CellMean_hull,50.00,9712,324,7025129,99956,121.36,0.00
mona-lisa100K,hhi_greedy_basic_adapK_9CellMean_hull,75.00,9712,326,7053077,99955,122.41,0.00
mona-lisa100K,hhi_greedy_basic_adapK_9CellMean_hull,100.00,9712,239,7068833,99964,123.27,0.00
mona-lisa100K,hhi_greedy_basic_adapK_9CellMean_hull,200.00,9712,251,7126620,99972,125.10,0.00
