Dataset,Algorithm,Lambda,MemoryKB,TimeMS,TourLength,Bends,AvgBendAngle,Accuracy%
a20,hhi_greedy_2opt_adapK_hull,0,9712,0,370,19,113.22,0.00
a20,hhi_greedy_2opt_adapK_hull,0.50,9712,0,370,19,113.22,0.00
a20,hhi_greedy_2opt_adapK_hull,1.00,9712,0,370,19,113.22,0.00
a20,hhi_greedy_2opt_adapK_hull,1.50,9712,0,370,19,113.22,0.00
a20,hhi_greedy_2opt_adapK_hull,2.00,9712,0,370,19,113.22,0.00
a20,hhi_greedy_2opt_adapK_hull,2.50,9712,0,370,19,113.22,0.00
a20,hhi_greedy_2opt_adapK_hull,3.00,9712,0,370,19,113.22,0.00
a20,hhi_greedy_2opt_adapK_hull,3.50,9712,0,370,19,113.22,0.00
a20,hhi_greedy_2opt_adapK_hull,4.00,9712,0,370,19,113.22,0.00
a20,hhi_greedy_2opt_adapK_hull,5.00,9712,0,370,19,113.22,0.00
a20,hhi_greedy_2opt_adapK_hull,7.00,9712,0,370,19,113.22,0.00
a20,hhi_greedy_2opt_adapK_hull,10.00,9712,0,370,19,113.22,0.00
a20,hhi_greedy_2opt_adapK_hull,25.00,9712,0,370,19,113.22,0.00
a20,hhi_greedy_2opt_adapK_hull,50.00,9712,0,370,19,113.22,0.00
a20,hhi_greedy_2opt_adapK_hull,75.00,9712,0,370,19,113.22,0.00
a20,hhi_greedy_2opt_adapK_hull,100.00,9712,0,370,19,113.22,0.00
a20,hhi_greedy_2opt_adapK_hull,200.00,9712,0,362,19,128.43,0.00
a280,hhi_greedy_2opt_adapK_hull,0.00,9712,0,3610,275,138.55,0.00
a280,hhi_greedy_2opt_adapK_hull,0.50,9712,0,3499,274,139.21,0.00
a280,hhi_greedy_2opt_adapK_hull,1.00,9712,0,3499,274,139.21,0.00
a280,hhi_greedy_2opt_adapK_hull,1.50,9712,0,3499,274,139.21,0.00
a280,hhi_greedy_2opt_adapK_hull,2.00,9712,0,3499,274,139.21,0.00
a280,hhi_greedy_2opt_adapK_hull,2.50,9712,0,3499,274,139.21,0.00
a280,hhi_greedy_2opt_adapK_hull,3.00,9712,0,3499,274,139.21,0.00
a280,hhi_greedy_2opt_adapK_hull,3.50,9712,0,3499,274,139.21,0.00
a280,hhi_greedy_2opt_adapK_hull,4.00,9712,0,3499,274,139.21,0.00
a280,hhi_greedy_2opt_adapK_hull,5.00,9712,0,3499,274,139.21,0.00
a280,hhi_greedy_2opt_adapK_hull,7.00,9712,0,3499,274,139.21,0.00
a280,hhi_greedy_2opt_adapK_hull,10.00,9712,0,3499,274,139.21,0.00
a280,hhi_greedy_2opt_adapK_hull,25.00,9712,0,3242,276,138.22,0.00
a280,hhi_greedy_2opt_adapK_hull,50.00,9712,0,3179,273,134.82,0.00
a280,hhi_greedy_2opt_adapK_hull,75.00,9712,0,3179,273,134.82,0.00
a280,hhi_greedy_2opt_adapK_hull,100.00,9712,0,3206,273,136.62,0.00
a280,hhi_greedy_2opt_adapK_hull,200.00,9712,0,3407,276,139.42,0.00
xql662,hhi_greedy_2opt_adapK_hull,0.00,9712,0,3363,651,132.90,0.00
xql662,hhi_greedy_2opt_adapK_hull,0.50,9712,0,3338,650,133.89,0.00
xql662,hhi_greedy_2opt_adapK_hull,1.00,9712,0,3358,653,133.78,0.00
xql662,hhi_greedy_2opt_adapK_hull,1.50,9712,0,3308,654,134.52,0.00
xql662,hhi_greedy_2opt_adapK_hull,2.00,9712,0,3271,655,135.72,0.00
xql662,hhi_greedy_2opt_adapK_hull,2.50,9712,0,3359,655,134.68,0.00
xql662,hhi_greedy_2opt_adapK_hull,3.00,9712,0,3445,652,132.16,0.00
xql662,hhi_greedy_2opt_adapK_hull,3.50,9712,0,3342,654,136.69,0.00
xql662,hhi_greedy_2opt_adapK_hull,4.00,9712,0,3402,656,136.41,0.00
xql662,hhi_greedy_2opt_adapK_hull,5.00,9712,0,3413,656,136.22,0.00
xql662,hhi_greedy_2opt_adapK_hull,7.00,9712,0,3500,657,135.35,0.00
xql662,hhi_greedy_2opt_adapK_hull,10.00,9712,0,3421,656,136.36,0.00
xql662,hhi_greedy_2opt_adapK_hull,25.00,9712,1,3416,656,136.86,0.00
xql662,hhi_greedy_2opt_adapK_hull,50.00,9712,0,3572,657,138.15,0.00
xql662,hhi_greedy_2opt_adapK_hull,75.00,9712,0,4016,659,138.92,0.00
xql662,hhi_greedy_2opt_adapK_hull,100.00,9712,0,3677,659,137.02,0.00
xql662,hhi_greedy_2opt_adapK_hull,200.00,9712,0,3618,658,141.23,0.00
kz9976,hhi_greedy_2opt_adapK_hull,0.00,9712,9,1627032,9941,112.57,0.00
kz9976,hhi_greedy_2opt_adapK_hull,0.50,9712,9,1600280,9949,112.36,0.00
kz9976,hhi_greedy_2opt_adapK_hull,1.00,9712,9,1600335,9949,112.39,0.00
kz9976,hhi_greedy_2opt_adapK_hull,1.50,9712,9,1599764,9949,112.36,0.00
kz9976,hhi_greedy_2opt_adapK_hull,2.00,9712,10,1613529,9946,112.45,0.00
kz9976,hhi_greedy_2opt_adapK_hull,2.50,9712,12,1628846,9941,112.39,0.00
kz9976,hhi_greedy_2opt_adapK_hull,3.00,9712,10,1612814,9942,112.55,0.00
kz9976,hhi_greedy_2opt_adapK_hull,3.50,9712,10,1612384,9943,112.56,0.00
kz9976,hhi_greedy_2opt_adapK_hull,4.00,9712,8,1612379,9945,112.47,0.00
kz9976,hhi_greedy_2opt_adapK_hull,5.00,9712,9,1614323,9938,112.82,0.00
kz9976,hhi_greedy_2opt_adapK_hull,7.00,9712,10,1614448,9946,112.83,0.00
kz9976,hhi_greedy_2opt_adapK_hull,10.00,9712,12,1612610,9946,113.46,0.00
kz9976,hhi_greedy_2opt_adapK_hull,25.00,9712,11,1606376,9946,113.59,0.00
kz9976,hhi_greedy_2opt_adapK_hull,50.00,9712,11,1609592,9948,115.28,0.00
kz9976,hhi_greedy_2opt_adapK_hull,75.00,9712,8,1597490,9946,115.36,0.00
kz9976,hhi_greedy_2opt_adapK_hull,100.00,9712,9,1619583,9949,115.79,0.00
kz9976,hhi_greedy_2opt_adapK_hull,200.00,9712,10,1624701,9950,117.06,0.00
ei8246,hhi_greedy_2opt_adapK_hull,0.00,9712,14,268530,8233,117.10,0.00
ei8246,hhi_greedy_2opt_adapK_hull,0.50,9712,13,267240,8233,117.29,0.00
ei8246,hhi_greedy_2opt_adapK_hull,1.00,9712,15,266673,8232,116.99,0.00
ei8246,hhi_greedy_2opt_adapK_hull,1.50,9712,14,268090,8238,117.73,0.00
ei8246,hhi_greedy_2opt_adapK_hull,2.00,9712,13,269473,8234,117.34,0.00
ei8246,hhi_greedy_2opt_adapK_hull,2.50,9712,13,265776,8230,117.58,0.00
ei8246,hhi_greedy_2opt_adapK_hull,3.00,9712,13,264606,8236,117.80,0.00
ei8246,hhi_greedy_2opt_adapK_hull,3.50,9712,13,265655,8236,117.63,0.00
ei8246,hhi_greedy_2opt_adapK_hull,4.00,9712,15,268775,8235,117.84,0.00
ei8246,hhi_greedy_2opt_adapK_hull,5.00,9712,16,265660,8233,118.24,0.00
ei8246,hhi_greedy_2opt_adapK_hull,7.00,9712,16,267139,8235,118.81,0.00
ei8246,hhi_greedy_2opt_adapK_hull,10.00,9712,14,264984,8234,119.60,0.00
ei8246,hhi_greedy_2opt_adapK_hull,25.00,9712,14,275220,8235,121.92,0.00
ei8246,hhi_greedy_2opt_adapK_hull,50.00,9712,14,277062,8233,123.82,0.00
ei8246,hhi_greedy_2opt_adapK_hull,75.00,9712,14,280156,8239,125.29,0.00
ei8246,hhi_greedy_2opt_adapK_hull,100.00,9712,15,287772,8236,125.46,0.00
ei8246,hhi_greedy_2opt_adapK_hull,200.00,9712,14,293903,8241,128.25,0.00
vm22775,hhi_greedy_2opt_adapK_hull,0.00,9712,25,865114,22305,116.20,0.00
vm22775,hhi_greedy_2opt_adapK_hull,0.50,9712,20,870599,22354,117.13,0.00
vm22775,hhi_greedy_2opt_adapK_hull,1.00,9712,21,871693,22360,117.06,0.00
vm22775,hhi_greedy_2opt_adapK_hull,1.50,9712,23,873084,22368,117.09,0.00
vm22775,hhi_greedy_2opt_adapK_hull,2.00,9712,30,862192,22355,117.25,0.00
vm22775,hhi_greedy_2opt_adapK_hull,2.50,9712,28,859980,22364,117.50,0.00
vm22775,hhi_greedy_2opt_adapK_hull,3.00,9712,23,861466,22367,117.58,0.00
vm22775,hhi_greedy_2opt_adapK_hull,3.50,9712,25,867583,22372,117.46,0.00
vm22775,hhi_greedy_2opt_adapK_hull,4.00,9712,48,864573,22379,117.54,0.00
vm22775,hhi_greedy_2opt_adapK_hull,5.00,9712,58,867217,22382,117.75,0.00
vm22775,hhi_greedy_2opt_adapK_hull,7.00,9712,45,873461,22381,118.01,0.00
vm22775,hhi_greedy_2opt_adapK_hull,10.00,9712,32,875994,22377,118.49,0.00
vm22775,hhi_greedy_2opt_adapK_hull,25.00,9712,31,883795,22440,119.35,0.00
vm22775,hhi_greedy_2opt_adapK_hull,50.00,9712,33,889987,22510,120.49,0.00
vm22775,hhi_greedy_2opt_adapK_hull,75.00,9712,30,890921,22525,121.01,0.00
vm22775,hhi_greedy_2opt_adapK_hull,100.00,9712,29,900087,22561,121.33,0.00
vm22775,hhi_greedy_2opt_adapK_hull,200.00,9712,26,925215,22585,122.44,0.00
ja9847,hhi_greedy_2opt_adapK_hull,0.00,9712,9,793126,9748,114.66,0.00
ja9847,hhi_greedy_2opt_adapK_hull,0.50,9712,9,793296,9762,115.21,0.00
ja9847,hhi_greedy_2opt_adapK_hull,1.00,9712,8,779077,9762,115.31,0.00
ja9847,hhi_greedy_2opt_adapK_hull,1.50,9712,10,778328,9764,115.43,0.00
ja9847,hhi_greedy_2opt_adapK_hull,2.00,9712,10,780980,9757,116.13,0.00
ja9847,hhi_greedy_2opt_adapK_hull,2.50,9712,10,785018,9759,116.18,0.00
ja9847,hhi_greedy_2opt_adapK_hull,3.00,9712,8,781835,9762,116.14,0.00
ja9847,hhi_greedy_2opt_adapK_hull,3.50,9712,9,782267,9765,116.17,0.00
ja9847,hhi_greedy_2opt_adapK_hull,4.00,9712,12,789388,9760,116.49,0.00
ja9847,hhi_greedy_2opt_adapK_hull,5.00,9712,10,791878,9769,116.69,0.00
ja9847,hhi_greedy_2opt_adapK_hull,7.00,9712,9,792803,9766,116.90,0.00
ja9847,hhi_greedy_2opt_adapK_hull,10.00,9712,9,784497,9777,117.24,0.00
ja9847,hhi_greedy_2opt_adapK_hull,25.00,9712,10,812637,9793,118.14,0.00
ja9847,hhi_greedy_2opt_adapK_hull,50.00,9712,11,813757,9814,119.92,0.00
ja9847,hhi_greedy_2opt_adapK_hull,75.00,9712,14,826348,9808,121.13,0.00
ja9847,hhi_greedy_2opt_adapK_hull,100.00,9712,11,804723,9818,121.41,0.00
ja9847,hhi_greedy_2opt_adapK_hull,200.00,9712,13,842966,9817,122.14,0.00
mona-lisa100K,hhi_greedy_2opt_adapK_hull,0.00,9712,412,6913319,99972,119.21,0.00
mona-lisa100K,hhi_greedy_2opt_adapK_hull,0.50,9712,324,6886641,99968,119.37,0.00
mona-lisa100K,hhi_greedy_2opt_adapK_hull,1.00,9712,371,6906386,99961,119.38,0.00
mona-lisa100K,hhi_greedy_2opt_adapK_hull,1.50,9712,334,6889998,99969,119.42,0.00
mona-lisa100K,hhi_greedy_2opt_adapK_hull,2.00,9712,371,6886201,99958,119.61,0.00
mona-lisa100K,hhi_greedy_2opt_adapK_hull,2.50,9712,411,6907675,99967,119.84,0.00
mona-lisa100K,hhi_greedy_2opt_adapK_hull,3.00,9712,368,6914739,99964,119.74,0.00
mona-lisa100K,hhi_greedy_2opt_adapK_hull,3.50,9712,356,6888127,99965,119.95,0.00
mona-lisa100K,hhi_greedy_2opt_adapK_hull,4.00,9712,401,6913121,99956,119.97,0.00
mona-lisa100K,hhi_greedy_2opt_adapK_hull,5.00,9712,390,6893658,99958,120.04,0.00
mona-lisa100K,hhi_greedy_2opt_adapK_hull,7.00,9712,399,6911691,99963,120.32,0.00
mona-lisa100K,hhi_greedy_2opt_adapK_hull,10.00,9712,368,6914898,99967,120.82,0.00
mona-lisa100K,hhi_greedy_2opt_adapK_hull,25.00,9712,371,6921027,99968,122.51,0.00
mona-lisa100K,hhi_greedy_2opt_adapK_hull,50.00,9712,398,6950104,99962,123.89,0.00
mona-lisa100K,hhi_greedy_2opt_adapK_hull,75.00,9712,371,6962581,99957,125.21,0.00
mona-lisa100K,hhi_greedy_2opt_adapK_hull,100.00,9712,385,6993839,99966,126.13,0.00
mona-lisa100K,hhi_greedy_2opt_adapK_hull,200.00,9712,365,7034890,99973,127.95,0.00
