Dataset,Algorithm,Lambda,MemoryKB,TimeMS,TourLength,Bends,AvgBendAngle,Accuracy%
a20,hhi_greedy_2opt_adapK_9CellMean,0,7736,0,370,19,113.22,0.00
a20,hhi_greedy_2opt_adapK_9CellMean,0.50,7736,0,370,19,113.22,0.00
a20,hhi_greedy_2opt_adapK_9CellMean,1.00,7736,0,370,19,113.22,0.00
a20,hhi_greedy_2opt_adapK_9CellMean,1.50,7736,0,370,19,113.22,0.00
a20,hhi_greedy_2opt_adapK_9CellMean,2.00,7736,0,370,19,113.22,0.00
a20,hhi_greedy_2opt_adapK_9CellMean,2.50,7736,0,370,19,113.22,0.00
a20,hhi_greedy_2opt_adapK_9CellMean,3.00,7736,0,370,19,113.22,0.00
a20,hhi_greedy_2opt_adapK_9CellMean,3.50,7736,0,370,19,113.22,0.00
a20,hhi_greedy_2opt_adapK_9CellMean,4.00,7736,0,370,19,113.22,0.00
a20,hhi_greedy_2opt_adapK_9CellMean,5.00,7736,0,370,19,113.22,0.00
a20,hhi_greedy_2opt_adapK_9CellMean,7.00,7736,0,370,19,113.22,0.00
a20,hhi_greedy_2opt_adapK_9CellMean,10.00,7736,0,370,19,113.22,0.00
a20,hhi_greedy_2opt_adapK_9CellMean,25.00,7736,0,370,19,113.22,0.00
a20,hhi_greedy_2opt_adapK_9CellMean,50.00,7736,0,365,18,128.79,0.00
a20,hhi_greedy_2opt_adapK_9CellMean,75.00,7736,0,415,18,114.51,0.00
a20,hhi_greedy_2opt_adapK_9CellMean,100.00,7736,0,415,18,114.51,0.00
a20,hhi_greedy_2opt_adapK_9CellMean,200.00,7736,0,415,18,114.51,0.00
a280,hhi_greedy_2opt_adapK_9CellMean,0.00,7736,0,3443,273,135.24,0.00
a280,hhi_greedy_2opt_adapK_9CellMean,0.50,7736,0,3451,273,135.24,0.00
a280,hhi_greedy_2opt_adapK_9CellMean,1.00,7736,0,3451,273,135.24,0.00
a280,hhi_greedy_2opt_adapK_9CellMean,1.50,7736,0,3451,273,135.24,0.00
a280,hhi_greedy_2opt_adapK_9CellMean,2.00,7736,0,3451,273,135.24,0.00
a280,hhi_greedy_2opt_adapK_9CellMean,2.50,7736,0,3451,273,135.24,0.00
a280,hhi_greedy_2opt_adapK_9CellMean,3.00,7736,0,3451,273,135.24,0.00
a280,hhi_greedy_2opt_adapK_9CellMean,3.50,7736,0,3451,273,135.24,0.00
a280,hhi_greedy_2opt_adapK_9CellMean,4.00,7736,0,3451,273,135.24,0.00
a280,hhi_greedy_2opt_adapK_9CellMean,5.00,7736,0,3451,273,135.24,0.00
a280,hhi_greedy_2opt_adapK_9CellMean,7.00,7736,0,3451,273,135.24,0.00
a280,hhi_greedy_2opt_adapK_9CellMean,10.00,7736,0,3451,273,135.24,0.00
a280,hhi_greedy_2opt_adapK_9CellMean,25.00,7736,0,3356,273,133.66,0.00
a280,hhi_greedy_2opt_adapK_9CellMean,50.00,7736,0,3400,274,137.76,0.00
a280,hhi_greedy_2opt_adapK_9CellMean,75.00,7736,0,3400,274,137.76,0.00
a280,hhi_greedy_2opt_adapK_9CellMean,100.00,7736,0,3400,274,137.76,0.00
a280,hhi_greedy_2opt_adapK_9CellMean,200.00,7736,0,3434,272,134.00,0.00
xql662,hhi_greedy_2opt_adapK_9CellMean,0.00,7736,0,3470,646,128.15,0.00
xql662,hhi_greedy_2opt_adapK_9CellMean,0.50,7736,0,3461,646,129.39,0.00
xql662,hhi_greedy_2opt_adapK_9CellMean,1.00,7736,0,3480,645,130.11,0.00
xql662,hhi_greedy_2opt_adapK_9CellMean,1.50,7736,0,3565,653,129.94,0.00
xql662,hhi_greedy_2opt_adapK_9CellMean,2.00,7736,0,3626,653,129.64,0.00
xql662,hhi_greedy_2opt_adapK_9CellMean,2.50,7736,0,3599,652,129.61,0.00
xql662,hhi_greedy_2opt_adapK_9CellMean,3.00,7736,0,3592,654,129.87,0.00
xql662,hhi_greedy_2opt_adapK_9CellMean,3.50,7736,0,3544,652,130.48,0.00
xql662,hhi_greedy_2opt_adapK_9CellMean,4.00,7736,0,3681,655,129.88,0.00
xql662,hhi_greedy_2opt_adapK_9CellMean,5.00,7736,0,3687,655,129.98,0.00
xql662,hhi_greedy_2opt_adapK_9CellMean,7.00,7736,0,3516,655,131.42,0.00
xql662,hhi_greedy_2opt_adapK_9CellMean,10.00,7736,0,3603,657,132.52,0.00
xql662,hhi_greedy_2opt_adapK_9CellMean,25.00,7736,0,3799,655,133.49,0.00
xql662,hhi_greedy_2opt_adapK_9CellMean,50.00,7736,0,3676,655,136.53,0.00
xql662,hhi_greedy_2opt_adapK_9CellMean,75.00,7736,0,3674,659,136.04,0.00
xql662,hhi_greedy_2opt_adapK_9CellMean,100.00,7736,0,4018,659,134.09,0.00
xql662,hhi_greedy_2opt_adapK_9CellMean,200.00,7736,0,3861,660,136.48,0.00
kz9976,hhi_greedy_2opt_adapK_9CellMean,0.00,7736,5,1674733,9937,111.69,0.00
kz9976,hhi_greedy_2opt_adapK_9CellMean,0.50,7736,6,1662203,9942,111.99,0.00
kz9976,hhi_greedy_2opt_adapK_9CellMean,1.00,7736,5,1662258,9942,112.01,0.00
kz9976,hhi_greedy_2opt_adapK_9CellMean,1.50,7736,5,1661350,9942,112.02,0.00
kz9976,hhi_greedy_2opt_adapK_9CellMean,2.00,7736,5,1662816,9941,111.92,0.00
kz9976,hhi_greedy_2opt_adapK_9CellMean,2.50,7736,5,1662429,9942,111.89,0.00
kz9976,hhi_greedy_2opt_adapK_9CellMean,3.00,7736,7,1661957,9942,111.85,0.00
kz9976,hhi_greedy_2opt_adapK_9CellMean,3.50,7736,5,1661751,9942,111.87,0.00
kz9976,hhi_greedy_2opt_adapK_9CellMean,4.00,7736,6,1678144,9945,112.11,0.00
kz9976,hhi_greedy_2opt_adapK_9CellMean,5.00,7736,7,1663730,9941,112.15,0.00
kz9976,hhi_greedy_2opt_adapK_9CellMean,7.00,7736,5,1674352,9942,112.36,0.00
kz9976,hhi_greedy_2opt_adapK_9CellMean,10.00,7736,7,1686253,9948,111.96,0.00
kz9976,hhi_greedy_2opt_adapK_9CellMean,25.00,7736,6,1660714,9946,113.14,0.00
kz9976,hhi_greedy_2opt_adapK_9CellMean,50.00,7736,6,1664211,9952,113.99,0.00
kz9976,hhi_greedy_2opt_adapK_9CellMean,75.00,7736,6,1679708,9958,113.60,0.00
kz9976,hhi_greedy_2opt_adapK_9CellMean,100.00,7736,5,1683218,9946,113.99,0.00
kz9976,hhi_greedy_2opt_adapK_9CellMean,200.00,7736,4,1684852,9954,116.56,0.00
ei8246,hhi_greedy_2opt_adapK_9CellMean,0.00,7736,9,278837,8229,114.75,0.00
ei8246,hhi_greedy_2opt_adapK_9CellMean,0.50,7736,10,279914,8229,114.39,0.00
ei8246,hhi_greedy_2opt_adapK_9CellMean,1.00,7736,8,279941,8229,114.87,0.00
ei8246,hhi_greedy_2opt_adapK_9CellMean,1.50,7736,8,278843,8233,115.22,0.00
ei8246,hhi_greedy_2opt_adapK_9CellMean,2.00,7736,10,280165,8229,114.90,0.00
ei8246,hhi_greedy_2opt_adapK_9CellMean,2.50,7736,7,281543,8227,114.89,0.00
ei8246,hhi_greedy_2opt_adapK_9CellMean,3.00,7736,9,281751,8228,115.26,0.00
ei8246,hhi_greedy_2opt_adapK_9CellMean,3.50,7736,8,283752,8221,115.15,0.00
ei8246,hhi_greedy_2opt_adapK_9CellMean,4.00,7736,7,284317,8225,115.12,0.00
ei8246,hhi_greedy_2opt_adapK_9CellMean,5.00,7736,9,283436,8231,115.89,0.00
ei8246,hhi_greedy_2opt_adapK_9CellMean,7.00,7736,12,284823,8233,115.72,0.00
ei8246,hhi_greedy_2opt_adapK_9CellMean,10.00,7736,10,283680,8225,116.36,0.00
ei8246,hhi_greedy_2opt_adapK_9CellMean,25.00,7736,8,286266,8225,117.97,0.00
ei8246,hhi_greedy_2opt_adapK_9CellMean,50.00,7736,8,284008,8241,119.67,0.00
ei8246,hhi_greedy_2opt_adapK_9CellMean,75.00,7736,9,294724,8233,121.28,0.00
ei8246,hhi_greedy_2opt_adapK_9CellMean,100.00,7736,9,296521,8235,122.30,0.00
ei8246,hhi_greedy_2opt_adapK_9CellMean,200.00,7736,9,303925,8238,124.47,0.00
vm22775,hhi_greedy_2opt_adapK_9CellMean,0.00,7736,24,885276,22245,115.39,0.00
vm22775,hhi_greedy_2opt_adapK_9CellMean,0.50,7736,21,904819,22304,116.74,0.00
vm22775,hhi_greedy_2opt_adapK_9CellMean,1.00,7736,18,902658,22294,116.77,0.00
vm22775,hhi_greedy_2opt_adapK_9CellMean,1.50,7736,18,902544,22288,116.74,0.00
vm22775,hhi_greedy_2opt_adapK_9CellMean,2.00,7736,20,901449,22292,116.78,0.00
vm22775,hhi_greedy_2opt_adapK_9CellMean,2.50,7736,18,902805,22309,116.73,0.00
vm22775,hhi_greedy_2opt_adapK_9CellMean,3.00,7736,18,901172,22319,116.78,0.00
vm22775,hhi_greedy_2opt_adapK_9CellMean,3.50,7736,18,896852,22327,116.77,0.00
vm22775,hhi_greedy_2opt_adapK_9CellMean,4.00,7736,18,897841,22338,116.94,0.00
vm22775,hhi_greedy_2opt_adapK_9CellMean,5.00,7736,18,898487,22339,117.13,0.00
vm22775,hhi_greedy_2opt_adapK_9CellMean,7.00,7736,22,907693,22350,117.43,0.00
vm22775,hhi_greedy_2opt_adapK_9CellMean,10.00,7736,12,896458,22344,117.80,0.00
vm22775,hhi_greedy_2opt_adapK_9CellMean,25.00,7736,17,901104,22409,118.96,0.00
vm22775,hhi_greedy_2opt_adapK_9CellMean,50.00,7736,19,895698,22477,119.67,0.00
vm22775,hhi_greedy_2opt_adapK_9CellMean,75.00,7736,14,924796,22501,120.15,0.00
vm22775,hhi_greedy_2opt_adapK_9CellMean,100.00,7736,12,924855,22529,120.35,0.00
vm22775,hhi_greedy_2opt_adapK_9CellMean,200.00,7736,14,940185,22584,121.38,0.00
ja9847,hhi_greedy_2opt_adapK_9CellMean,0.00,7736,6,834619,9757,113.78,0.00
ja9847,hhi_greedy_2opt_adapK_9CellMean,0.50,7736,6,816799,9762,114.72,0.00
ja9847,hhi_greedy_2opt_adapK_9CellMean,1.00,7736,6,822100,9759,114.65,0.00
ja9847,hhi_greedy_2opt_adapK_9CellMean,1.50,7736,6,822643,9757,114.84,0.00
ja9847,hhi_greedy_2opt_adapK_9CellMean,2.00,7736,6,822774,9763,115.03,0.00
ja9847,hhi_greedy_2opt_adapK_9CellMean,2.50,7736,6,823270,9764,115.30,0.00
ja9847,hhi_greedy_2opt_adapK_9CellMean,3.00,7736,6,817131,9767,115.39,0.00
ja9847,hhi_greedy_2opt_adapK_9CellMean,3.50,7736,6,816868,9767,115.65,0.00
ja9847,hhi_greedy_2opt_adapK_9CellMean,4.00,7736,6,820966,9767,115.89,0.00
ja9847,hhi_greedy_2opt_adapK_9CellMean,5.00,7736,6,806466,9771,115.68,0.00
ja9847,hhi_greedy_2opt_adapK_9CellMean,7.00,7736,6,806582,9773,116.08,0.00
ja9847,hhi_greedy_2opt_adapK_9CellMean,10.00,7736,6,823833,9778,116.34,0.00
ja9847,hhi_greedy_2opt_adapK_9CellMean,25.00,7736,5,821598,9787,117.71,0.00
ja9847,hhi_greedy_2opt_adapK_9CellMean,50.00,7736,7,848347,9813,119.58,0.00
ja9847,hhi_greedy_2opt_adapK_9CellMean,75.00,7736,6,844704,9810,120.19,0.00
ja9847,hhi_greedy_2opt_adapK_9CellMean,100.00,7736,6,823993,9808,120.68,0.00
ja9847,hhi_greedy_2opt_adapK_9CellMean,200.00,7736,6,860369,9821,121.32,0.00
mona-lisa100K,hhi_greedy_2opt_adapK_9CellMean,0.00,7736,277,6983246,99948,116.70,0.00
mona-lisa100K,hhi_greedy_2opt_adapK_9CellMean,0.50,7736,216,6979940,99948,116.73,0.00
mona-lisa100K,hhi_greedy_2opt_adapK_9CellMean,1.00,7736,311,6987492,99952,116.94,0.00
mona-lisa100K,hhi_greedy_2opt_adapK_9CellMean,1.50,7736,236,6983501,99953,117.02,0.00
mona-lisa100K,hhi_greedy_2opt_adapK_9CellMean,2.00,7736,259,6979094,99954,116.92,0.00
mona-lisa100K,hhi_greedy_2opt_adapK_9CellMean,2.50,7736,282,6985592,99952,117.16,0.00
mona-lisa100K,hhi_greedy_2opt_adapK_9CellMean,3.00,7736,210,6975194,99945,117.23,0.00
mona-lisa100K,hhi_greedy_2opt_adapK_9CellMean,3.50,7736,249,6979020,99964,117.27,0.00
mona-lisa100K,hhi_greedy_2opt_adapK_9CellMean,4.00,7736,247,6974448,99962,117.22,0.00
mona-lisa100K,hhi_greedy_2opt_adapK_9CellMean,5.00,7736,369,7001695,99950,117.47,0.00
mona-lisa100K,hhi_greedy_2opt_adapK_9CellMean,7.00,7736,244,6999014,99956,117.89,0.00
mona-lisa100K,hhi_greedy_2opt_adapK_9CellMean,10.00,7736,228,6971923,99955,117.98,0.00
mona-lisa100K,hhi_greedy_2opt_adapK_9CellMean,25.00,7736,222,6984255,99951,119.64,0.00
mona-lisa100K,hhi_greedy_2opt_adapK_9CellMean,50.00,7736,293,7025143,99956,121.36,0.00
mona-lisa100K,hhi_greedy_2opt_adapK_9CellMean,75.00,7736,273,7056985,99962,122.55,0.00
mona-lisa100K,hhi_greedy_2opt_adapK_9CellMean,100.00,7736,202,7068913,99964,123.27,0.00
mona-lisa100K,hhi_greedy_2opt_adapK_9CellMean,200.00,7736,231,7126572,99972,125.10,0.00
