Dataset,Algorithm,Lambda,MemoryKB,TimeMS,TourLength,Bends,AvgBendAngle,Accuracy%
a20,hhi_greedy_2opt_adapK_9CellMean_hull,0,9712,0,370,19,113.22,0.00
a20,hhi_greedy_2opt_adapK_9CellMean_hull,0.50,9712,0,370,19,113.22,0.00
a20,hhi_greedy_2opt_adapK_9CellMean_hull,1.00,9712,0,370,19,113.22,0.00
a20,hhi_greedy_2opt_adapK_9CellMean_hull,1.50,9712,0,370,19,113.22,0.00
a20,hhi_greedy_2opt_adapK_9CellMean_hull,2.00,9712,0,370,19,113.22,0.00
a20,hhi_greedy_2opt_adapK_9CellMean_hull,2.50,9712,0,370,19,113.22,0.00
a20,hhi_greedy_2opt_adapK_9CellMean_hull,3.00,9712,0,370,19,113.22,0.00
a20,hhi_greedy_2opt_adapK_9CellMean_hull,3.50,9712,0,370,19,113.22,0.00
a20,hhi_greedy_2opt_adapK_9CellMean_hull,4.00,9712,0,370,19,113.22,0.00
a20,hhi_greedy_2opt_adapK_9CellMean_hull,5.00,9712,0,370,19,113.22,0.00
a20,hhi_greedy_2opt_adapK_9CellMean_hull,7.00,9712,0,370,19,113.22,0.00
a20,hhi_greedy_2opt_adapK_9CellMean_hull,10.00,9712,0,370,19,113.22,0.00
a20,hhi_greedy_2opt_adapK_9CellMean_hull,25.00,9712,0,370,19,113.22,0.00
a20,hhi_greedy_2opt_adapK_9CellMean_hull,50.00,9712,0,370,19,113.22,0.00
a20,hhi_greedy_2opt_adapK_9CellMean_hull,75.00,9712,0,370,19,113.22,0.00
a20,hhi_greedy_2opt_adapK_9CellMean_hull,100.00,9712,0,370,19,113.22,0.00
a20,hhi_greedy_2opt_adapK_9CellMean_hull,200.00,9712,0,365,18,128.79,0.00
a280,hhi_greedy_2opt_adapK_9CellMean_hull,0.00,9712,0,3443,273,135.24,0.00
a280,hhi_greedy_2opt_adapK_9CellMean_hull,0.50,9712,0,3451,273,135.24,0.00
a280,hhi_greedy_2opt_adapK_9CellMean_hull,1.00,9712,0,3451,273,135.24,0.00
a280,hhi_greedy_2opt_adapK_9CellMean_hull,1.50,9712,0,3451,273,135.24,0.00
a280,hhi_greedy_2opt_adapK_9CellMean_hull,2.00,9712,0,3451,273,135.24,0.00
a280,hhi_greedy_2opt_adapK_9CellMean_hull,2.50,9712,0,3451,273,135.24,0.00
a280,hhi_greedy_2opt_adapK_9CellMean_hull,3.00,9712,0,3451,273,135.24,0.00
a280,hhi_greedy_2opt_adapK_9CellMean_hull,3.50,9712,0,3451,273,135.24,0.00
a280,hhi_greedy_2opt_adapK_9CellMean_hull,4.00,9712,0,3451,273,135.24,0.00
a280,hhi_greedy_2opt_adapK_9CellMean_hull,5.00,9712,0,3451,273,135.24,0.00
a280,hhi_greedy_2opt_adapK_9CellMean_hull,7.00,9712,0,3451,273,135.24,0.00
a280,hhi_greedy_2opt_adapK_9CellMean_hull,10.00,9712,0,3451,273,135.24,0.00
a280,hhi_greedy_2opt_adapK_9CellMean_hull,25.00,9712,0,3356,273,133.66,0.00
a280,hhi_greedy_2opt_adapK_9CellMean_hull,50.00,9712,0,3400,274,137.76,0.00
a280,hhi_greedy_2opt_adapK_9CellMean_hull,75.00,9712,0,3400,274,137.76,0.00
a280,hhi_greedy_2opt_adapK_9CellMean_hull,100.00,9712,0,3400,274,137.76,0.00
a280,hhi_greedy_2opt_adapK_9CellMean_hull,200.00,9712,0,3345,272,134.47,0.00
xql662,hhi_greedy_2opt_adapK_9CellMean_hull,0.00,9712,0,3470,646,128.15,0.00
xql662,hhi_greedy_2opt_adapK_9CellMean_hull,0.50,9712,0,3461,646,129.39,0.00
xql662,hhi_greedy_2opt_adapK_9CellMean_hull,1.00,9712,0,3480,645,130.11,0.00
xql662,hhi_greedy_2opt_adapK_9CellMean_hull,1.50,9712,0,3565,653,129.94,0.00
xql662,hhi_greedy_2opt_adapK_9CellMean_hull,2.00,9712,0,3626,653,129.64,0.00
xql662,hhi_greedy_2opt_adapK_9CellMean_hull,2.50,9712,0,3599,652,129.61,0.00
xql662,hhi_greedy_2opt_adapK_9CellMean_hull,3.00,9712,0,3592,654,129.87,0.00
xql662,hhi_greedy_2opt_adapK_9CellMean_hull,3.50,9712,0,3544,652,130.48,0.00
xql662,hhi_greedy_2opt_adapK_9CellMean_hull,4.00,9712,0,3681,655,129.88,0.00
xql662,hhi_greedy_2opt_adapK_9CellMean_hull,5.00,9712,0,3687,655,129.98,0.00
xql662,hhi_greedy_2opt_adapK_9CellMean_hull,7.00,9712,0,3516,655,131.42,0.00
xql662,hhi_greedy_2opt_adapK_9CellMean_hull,10.00,9712,0,3603,657,132.52,0.00
xql662,hhi_greedy_2opt_adapK_9CellMean_hull,25.00,9712,0,3799,655,133.49,0.00
xql662,hhi_greedy_2opt_adapK_9CellMean_hull,50.00,9712,0,3689,658,135.17,0.00
xql662,hhi_greedy_2opt_adapK_9CellMean_hull,75.00,9712,0,3759,659,137.07,0.00
xql662,hhi_greedy_2opt_adapK_9CellMean_hull,100.00,9712,0,4044,659,134.08,0.00
xql662,hhi_greedy_2opt_adapK_9CellMean_hull,200.00,9712,0,3744,659,135.46,0.00
kz9976,hhi_greedy_2opt_adapK_9CellMean_hull,0.00,9712,7,1674733,9937,111.69,0.00
kz9976,hhi_greedy_2opt_adapK_9CellMean_hull,0.50,9712,6,1662203,9942,111.99,0.00
kz9976,hhi_greedy_2opt_adapK_9CellMean_hull,1.00,9712,7,1662258,9942,112.01,0.00
kz9976,hhi_greedy_2opt_adapK_9CellMean_hull,1.50,9712,7,1661350,9942,112.02,0.00
kz9976,hhi_greedy_2opt_adapK_9CellMean_hull,2.00,9712,6,1662816,9941,111.92,0.00
kz9976,hhi_greedy_2opt_adapK_9CellMean_hull,2.50,9712,7,1662429,9942,111.89,0.00
kz9976,hhi_greedy_2opt_adapK_9CellMean_hull,3.00,9712,6,1661957,9942,111.85,0.00
kz9976,hhi_greedy_2opt_adapK_9CellMean_hull,3.50,9712,8,1661751,9942,111.87,0.00
kz9976,hhi_greedy_2opt_adapK_9CellMean_hull,4.00,9712,6,1678144,9945,112.11,0.00
kz9976,hhi_greedy_2opt_adapK_9CellMean_hull,5.00,9712,8,1663730,9941,112.15,0.00
kz9976,hhi_greedy_2opt_adapK_9CellMean_hull,7.00,9712,7,1674352,9942,112.36,0.00
kz9976,hhi_greedy_2opt_adapK_9CellMean_hull,10.00,9712,6,1686253,9948,111.96,0.00
kz9976,hhi_greedy_2opt_adapK_9CellMean_hull,25.00,9712,7,1660714,9946,113.14,0.00
kz9976,hhi_greedy_2opt_adapK_9CellMean_hull,50.00,9712,8,1664211,9952,113.99,0.00
kz9976,hhi_greedy_2opt_adapK_9CellMean_hull,75.00,9712,6,1679708,9958,113.60,0.00
kz9976,hhi_greedy_2opt_adapK_9CellMean_hull,100.00,9712,6,1683010,9946,114.00,0.00
kz9976,hhi_greedy_2opt_adapK_9CellMean_hull,200.00,9712,6,1684863,9954,116.55,0.00
ei8246,hhi_greedy_2opt_adapK_9CellMean_hull,0.00,9712,10,278837,8229,114.75,0.00
ei8246,hhi_greedy_2opt_adapK_9CellMean_hull,0.50,9712,10,279914,8229,114.39,0.00
ei8246,hhi_greedy_2opt_adapK_9CellMean_hull,1.00,9712,10,279941,8229,114.87,0.00
ei8246,hhi_greedy_2opt_adapK_9CellMean_hull,1.50,9712,9,278843,8233,115.22,0.00
ei8246,hhi_greedy_2opt_adapK_9CellMean_hull,2.00,9712,10,280165,8229,114.90,0.00
ei8246,hhi_greedy_2opt_adapK_9CellMean_hull,2.50,9712,9,281543,8227,114.89,0.00
ei8246,hhi_greedy_2opt_adapK_9CellMean_hull,3.00,9712,12,281751,8228,115.26,0.00
ei8246,hhi_greedy_2opt_adapK_9CellMean_hull,3.50,9712,9,283752,8221,115.15,0.00
ei8246,hhi_greedy_2opt_adapK_9CellMean_hull,4.00,9712,9,284317,8225,115.12,0.00
ei8246,hhi_greedy_2opt_adapK_9CellMean_hull,5.00,9712,10,283436,8231,115.89,0.00
ei8246,hhi_greedy_2opt_adapK_9CellMean_hull,7.00,9712,10,284823,8233,115.72,0.00
ei8246,hhi_greedy_2opt_adapK_9CellMean_hull,10.00,9712,10,283680,8225,116.36,0.00
ei8246,hhi_greedy_2opt_adapK_9CellMean_hull,25.00,9712,8,285295,8225,118.13,0.00
ei8246,hhi_greedy_2opt_adapK_9CellMean_hull,50.00,9712,10,290840,8234,119.70,0.00
ei8246,hhi_greedy_2opt_adapK_9CellMean_hull,75.00,9712,9,292137,8235,121.37,0.00
ei8246,hhi_greedy_2opt_adapK_9CellMean_hull,100.00,9712,9,296538,8235,122.29,0.00
ei8246,hhi_greedy_2opt_adapK_9CellMean_hull,200.00,9712,10,304141,8238,124.43,0.00
vm22775,hhi_greedy_2opt_adapK_9CellMean_hull,0.00,9712,24,885276,22245,115.39,0.00
vm22775,hhi_greedy_2opt_adapK_9CellMean_hull,0.50,9712,27,904799,22304,116.73,0.00
vm22775,hhi_greedy_2opt_adapK_9CellMean_hull,1.00,9712,25,902658,22294,116.77,0.00
vm22775,hhi_greedy_2opt_adapK_9CellMean_hull,1.50,9712,27,902540,22288,116.74,0.00
vm22775,hhi_greedy_2opt_adapK_9CellMean_hull,2.00,9712,23,901445,22292,116.78,0.00
vm22775,hhi_greedy_2opt_adapK_9CellMean_hull,2.50,9712,22,902801,22309,116.73,0.00
vm22775,hhi_greedy_2opt_adapK_9CellMean_hull,3.00,9712,24,901168,22319,116.78,0.00
vm22775,hhi_greedy_2opt_adapK_9CellMean_hull,3.50,9712,26,896848,22327,116.77,0.00
vm22775,hhi_greedy_2opt_adapK_9CellMean_hull,4.00,9712,24,897841,22338,116.94,0.00
vm22775,hhi_greedy_2opt_adapK_9CellMean_hull,5.00,9712,23,898487,22339,117.13,0.00
vm22775,hhi_greedy_2opt_adapK_9CellMean_hull,7.00,9712,30,907693,22350,117.43,0.00
vm22775,hhi_greedy_2opt_adapK_9CellMean_hull,10.00,9712,19,896458,22344,117.80,0.00
vm22775,hhi_greedy_2opt_adapK_9CellMean_hull,25.00,9712,24,900968,22395,118.94,0.00
vm22775,hhi_greedy_2opt_adapK_9CellMean_hull,50.00,9712,22,895771,22477,119.67,0.00
vm22775,hhi_greedy_2opt_adapK_9CellMean_hull,75.00,9712,18,922337,22501,120.18,0.00
vm22775,hhi_greedy_2opt_adapK_9CellMean_hull,100.00,9712,16,924674,22529,120.34,0.00
vm22775,hhi_greedy_2opt_adapK_9CellMean_hull,200.00,9712,18,931047,22581,121.31,0.00
ja9847,hhi_greedy_2opt_adapK_9CellMean_hull,0.00,9712,7,834619,9757,113.78,0.00
ja9847,hhi_greedy_2opt_adapK_9CellMean_hull,0.50,9712,6,816799,9762,114.72,0.00
ja9847,hhi_greedy_2opt_adapK_9CellMean_hull,1.00,9712,7,822100,9759,114.65,0.00
ja9847,hhi_greedy_2opt_adapK_9CellMean_hull,1.50,9712,7,822643,9757,114.84,0.00
ja9847,hhi_greedy_2opt_adapK_9CellMean_hull,2.00,9712,6,822774,9763,115.03,0.00
ja9847,hhi_greedy_2opt_adapK_9CellMean_hull,2.50,9712,7,823270,9764,115.30,0.00
ja9847,hhi_greedy_2opt_adapK_9CellMean_hull,3.00,9712,6,817131,9767,115.39,0.00
ja9847,hhi_greedy_2opt_adapK_9CellMean_hull,3.50,9712,6,816868,9767,115.65,0.00
ja9847,hhi_greedy_2opt_adapK_9CellMean_hull,4.00,9712,7,820966,9767,115.89,0.00
ja9847,hhi_greedy_2opt_adapK_9CellMean_hull,5.00,9712,7,806466,9771,115.68,0.00
ja9847,hhi_greedy_2opt_adapK_9CellMean_hull,7.00,9712,7,806571,9773,116.09,0.00
ja9847,hhi_greedy_2opt_adapK_9CellMean_hull,10.00,9712,7,823833,9778,116.34,0.00
ja9847,hhi_greedy_2opt_adapK_9CellMean_hull,25.00,9712,6,821598,9787,117.71,0.00
ja9847,hhi_greedy_2opt_adapK_9CellMean_hull,50.00,9712,8,848347,9813,119.58,0.00
ja9847,hhi_greedy_2opt_adapK_9CellMean_hull,75.00,9712,7,844704,9810,120.19,0.00
ja9847,hhi_greedy_2opt_adapK_9CellMean_hull,100.00,9712,7,823993,9808,120.68,0.00
ja9847,hhi_greedy_2opt_adapK_9CellMean_hull,200.00,9712,8,860521,9821,121.34,0.00
mona-lisa100K,hhi_greedy_2opt_adapK_9CellMean_hull,0.00,9712,334,6983246,99948,116.70,0.00
mona-lisa100K,hhi_greedy_2opt_adapK_9CellMean_hull,0.50,9712,246,6979940,99948,116.73,0.00
mona-lisa100K,hhi_greedy_2opt_adapK_9CellMean_hull,1.00,9712,331,6987492,99952,116.94,0.00
mona-lisa100K,hhi_greedy_2opt_adapK_9CellMean_hull,1.50,9712,282,6983501,99953,117.02,0.00
mona-lisa100K,hhi_greedy_2opt_adapK_9CellMean_hull,2.00,9712,353,6979094,99954,116.92,0.00
mona-lisa100K,hhi_greedy_2opt_adapK_9CellMean_hull,2.50,9712,319,6985592,99952,117.16,0.00
mona-lisa100K,hhi_greedy_2opt_adapK_9CellMean_hull,3.00,9712,254,6975194,99945,117.23,0.00
mona-lisa100K,hhi_greedy_2opt_adapK_9CellMean_hull,3.50,9712,308,6979020,99964,117.27,0.00
mona-lisa100K,hhi_greedy_2opt_adapK_9CellMean_hull,4.00,9712,299,6974448,99962,117.22,0.00
mona-lisa100K,hhi_greedy_2opt_adapK_9CellMean_hull,5.00,9712,487,7001695,99950,117.47,0.00
mona-lisa100K,hhi_greedy_2opt_adapK_9CellMean_hull,7.00,9712,385,6999014,99956,117.89,0.00
mona-lisa100K,hhi_greedy_2opt_adapK_9CellMean_hull,10.00,9712,311,6971923,99955,117.98,0.00
mona-lisa100K,hhi_greedy_2opt_adapK_9CellMean_hull,25.00,9712,302,6984255,99951,119.64,0.00
mona-lisa100K,hhi_greedy_2opt_adapK_9CellMean_hull,50.00,9712,443,7025081,99956,121.36,0.00
mona-lisa100K,hhi_greedy_2opt_adapK_9CellMean_hull,75.00,9712,411,7053069,99955,122.41,0.00
mona-lisa100K,hhi_greedy_2opt_adapK_9CellMean_hull,100.00,9712,270,7068825,99964,123.27,0.00
mona-lisa100K,hhi_greedy_2opt_adapK_9CellMean_hull,200.00,9712,320,7126572,99972,125.10,0.00
