Dataset,Algorithm,Lambda,MemoryKB,TimeMS,TourLength,Bends,AvgBendAngle,Accuracy%
a20,hhi_greedy_2opt_adapK_hull_multi,0,9712,0,364,19,122.70,0.00
a20,hhi_greedy_2opt_adapK_hull_multi,0.50,9712,0,360,19,134.62,0.00
a20,hhi_greedy_2opt_adapK_hull_multi,1.00,9712,0,360,19,134.62,0.00
a20,hhi_greedy_2opt_adapK_hull_multi,1.50,9712,0,360,19,134.62,0.00
a20,hhi_greedy_2opt_adapK_hull_multi,2.00,9712,0,360,19,134.62,0.00
a20,hhi_greedy_2opt_adapK_hull_multi,2.50,9712,0,360,19,134.62,0.00
a20,hhi_greedy_2opt_adapK_hull_multi,3.00,9712,0,360,19,134.62,0.00
a20,hhi_greedy_2opt_adapK_hull_multi,3.50,9712,0,360,19,134.62,0.00
a20,hhi_greedy_2opt_adapK_hull_multi,4.00,9712,0,360,19,134.62,0.00
a20,hhi_greedy_2opt_adapK_hull_multi,5.00,9712,0,360,19,134.62,0.00
a20,hhi_greedy_2opt_adapK_hull_multi,7.00,9712,0,360,19,134.62,0.00
a20,hhi_greedy_2opt_adapK_hull_multi,10.00,9712,0,360,19,134.62,0.00
a20,hhi_greedy_2opt_adapK_hull_multi,25.00,9712,0,360,19,134.62,0.00
a20,hhi_greedy_2opt_adapK_hull_multi,50.00,9712,0,355,19,135.26,0.00
a20,hhi_greedy_2opt_adapK_hull_multi,75.00,9712,0,344,19,149.14,0.00
a20,hhi_greedy_2opt_adapK_hull_multi,100.00,9712,0,344,19,149.14,0.00
a20,hhi_greedy_2opt_adapK_hull_multi,200.00,9712,0,344,19,149.14,0.00
a280,hhi_greedy_2opt_adapK_hull_multi,0.00,9712,3,3227,277,135.79,0.00
a280,hhi_greedy_2opt_adapK_hull_multi,0.50,9712,3,3293,275,139.39,0.00
a280,hhi_greedy_2opt_adapK_hull_multi,1.00,9712,3,3293,275,139.39,0.00
a280,hhi_greedy_2opt_adapK_hull_multi,1.50,9712,3,3293,275,139.39,0.00
a280,hhi_greedy_2opt_adapK_hull_multi,2.00,9712,3,3293,275,139.39,0.00
a280,hhi_greedy_2opt_adapK_hull_multi,2.50,9712,3,3293,275,139.39,0.00
a280,hhi_greedy_2opt_adapK_hull_multi,3.00,9712,3,3293,275,139.39,0.00
a280,hhi_greedy_2opt_adapK_hull_multi,3.50,9712,3,3293,275,139.39,0.00
a280,hhi_greedy_2opt_adapK_hull_multi,4.00,9712,3,3293,275,139.39,0.00
a280,hhi_greedy_2opt_adapK_hull_multi,5.00,9712,3,3293,275,139.39,0.00
a280,hhi_greedy_2opt_adapK_hull_multi,7.00,9712,3,3293,275,139.39,0.00
a280,hhi_greedy_2opt_adapK_hull_multi,10.00,9712,3,3293,275,139.39,0.00
a280,hhi_greedy_2opt_adapK_hull_multi,25.00,9712,3,3242,276,138.22,0.00
a280,hhi_greedy_2opt_adapK_hull_multi,50.00,9712,3,3179,273,134.82,0.00
a280,hhi_greedy_2opt_adapK_hull_multi,75.00,9712,3,3179,273,134.82,0.00
a280,hhi_greedy_2opt_adapK_hull_multi,100.00,9712,2,3206,273,136.62,0.00
a280,hhi_greedy_2opt_adapK_hull_multi,200.00,9712,3,3353,275,143.31,0.00
xql662,hhi_greedy_2opt_adapK_hull_multi,0.00,9712,6,3147,653,130.71,0.00
xql662,hhi_greedy_2opt_adapK_hull_multi,0.50,9712,7,3147,650,132.91,0.00
xql662,hhi_greedy_2opt_adapK_hull_multi,1.00,9712,7,3131,655,132.74,0.00
xql662,hhi_greedy_2opt_adapK_hull_multi,1.50,9712,7,3171,655,136.28,0.00
xql662,hhi_greedy_2opt_adapK_hull_multi,2.00,9712,7,3184,655,136.30,0.00
xql662,hhi_greedy_2opt_adapK_hull_multi,2.50,9712,7,3184,655,136.47,0.00
xql662,hhi_greedy_2opt_adapK_hull_multi,3.00,9712,7,3327,654,133.11,0.00
xql662,hhi_greedy_2opt_adapK_hull_multi,3.50,9712,7,3262,650,133.62,0.00
xql662,hhi_greedy_2opt_adapK_hull_multi,4.00,9712,7,3262,650,133.62,0.00
xql662,hhi_greedy_2opt_adapK_hull_multi,5.00,9712,7,3269,657,132.45,0.00
xql662,hhi_greedy_2opt_adapK_hull_multi,7.00,9712,7,3269,654,134.62,0.00
xql662,hhi_greedy_2opt_adapK_hull_multi,10.00,9712,9,3357,657,136.31,0.00
xql662,hhi_greedy_2opt_adapK_hull_multi,25.00,9712,7,3416,656,136.86,0.00
xql662,hhi_greedy_2opt_adapK_hull_multi,50.00,9712,6,3541,659,136.28,0.00
xql662,hhi_greedy_2opt_adapK_hull_multi,75.00,9712,7,3544,659,137.27,0.00
xql662,hhi_greedy_2opt_adapK_hull_multi,100.00,9712,6,3562,660,139.88,0.00
xql662,hhi_greedy_2opt_adapK_hull_multi,200.00,9712,7,3586,661,140.00,0.00
kz9976,hhi_greedy_2opt_adapK_hull_multi,0.00,9712,111,1477775,9944,114.73,0.00
kz9976,hhi_greedy_2opt_adapK_hull_multi,0.50,9712,112,1491868,9943,114.75,0.00
kz9976,hhi_greedy_2opt_adapK_hull_multi,1.00,9712,106,1486677,9952,114.17,0.00
kz9976,hhi_greedy_2opt_adapK_hull_multi,1.50,9712,97,1468416,9947,114.72,0.00
kz9976,hhi_greedy_2opt_adapK_hull_multi,2.00,9712,105,1492393,9950,114.35,0.00
kz9976,hhi_greedy_2opt_adapK_hull_multi,2.50,9712,107,1494657,9955,115.02,0.00
kz9976,hhi_greedy_2opt_adapK_hull_multi,3.00,9712,107,1495496,9951,114.42,0.00
kz9976,hhi_greedy_2opt_adapK_hull_multi,3.50,9712,104,1493385,9950,114.44,0.00
kz9976,hhi_greedy_2opt_adapK_hull_multi,4.00,9712,111,1492912,9950,114.53,0.00
kz9976,hhi_greedy_2opt_adapK_hull_multi,5.00,9712,115,1477316,9950,115.20,0.00
kz9976,hhi_greedy_2opt_adapK_hull_multi,7.00,9712,107,1487669,9948,114.97,0.00
kz9976,hhi_greedy_2opt_adapK_hull_multi,10.00,9712,106,1484920,9946,115.46,0.00
kz9976,hhi_greedy_2opt_adapK_hull_multi,25.00,9712,110,1483707,9946,115.31,0.00
kz9976,hhi_greedy_2opt_adapK_hull_multi,50.00,9712,111,1479116,9949,117.07,0.00
kz9976,hhi_greedy_2opt_adapK_hull_multi,75.00,9712,122,1495594,9955,117.65,0.00
kz9976,hhi_greedy_2opt_adapK_hull_multi,100.00,9712,110,1473067,9960,117.86,0.00
kz9976,hhi_greedy_2opt_adapK_hull_multi,200.00,9712,100,1526683,9961,119.34,0.00
ei8246,hhi_greedy_2opt_adapK_hull_multi,0.00,9712,137,265425,8240,117.60,0.00
ei8246,hhi_greedy_2opt_adapK_hull_multi,0.50,9712,127,264727,8234,117.35,0.00
ei8246,hhi_greedy_2opt_adapK_hull_multi,1.00,9712,127,265366,8229,116.69,0.00
ei8246,hhi_greedy_2opt_adapK_hull_multi,1.50,9712,125,261835,8229,117.24,0.00
ei8246,hhi_greedy_2opt_adapK_hull_multi,2.00,9712,118,264562,8233,117.13,0.00
ei8246,hhi_greedy_2opt_adapK_hull_multi,2.50,9712,139,265776,8230,117.58,0.00
ei8246,hhi_greedy_2opt_adapK_hull_multi,3.00,9712,116,264606,8236,117.80,0.00
ei8246,hhi_greedy_2opt_adapK_hull_multi,3.50,9712,131,264082,8235,117.78,0.00
ei8246,hhi_greedy_2opt_adapK_hull_multi,4.00,9712,172,265664,8231,117.65,0.00
ei8246,hhi_greedy_2opt_adapK_hull_multi,5.00,9712,113,265660,8233,118.24,0.00
ei8246,hhi_greedy_2opt_adapK_hull_multi,7.00,9712,110,263935,8239,118.81,0.00
ei8246,hhi_greedy_2opt_adapK_hull_multi,10.00,9712,106,264984,8234,119.60,0.00
ei8246,hhi_greedy_2opt_adapK_hull_multi,25.00,9712,107,272124,8238,121.48,0.00
ei8246,hhi_greedy_2opt_adapK_hull_multi,50.00,9712,116,274035,8240,123.59,0.00
ei8246,hhi_greedy_2opt_adapK_hull_multi,75.00,9712,113,279790,8239,125.07,0.00
ei8246,hhi_greedy_2opt_adapK_hull_multi,100.00,9712,111,284223,8239,125.95,0.00
ei8246,hhi_greedy_2opt_adapK_hull_multi,200.00,9712,105,289597,8241,127.62,0.00
vm22775,hhi_greedy_2opt_adapK_hull_multi,0.00,9712,209,844993,22361,114.83,0.00
vm22775,hhi_greedy_2opt_adapK_hull_multi,0.50,9712,215,838273,22426,117.16,0.00
vm22775,hhi_greedy_2opt_adapK_hull_multi,1.00,9712,208,836360,22431,117.19,0.00
vm22775,hhi_greedy_2opt_adapK_hull_multi,1.50,9712,224,835591,22427,117.48,0.00
vm22775,hhi_greedy_2opt_adapK_hull_multi,2.00,9712,212,836204,22420,117.38,0.00
vm22775,hhi_greedy_2opt_adapK_hull_multi,2.50,9712,222,833190,22427,117.43,0.00
vm22775,hhi_greedy_2opt_adapK_hull_multi,3.00,9712,227,830127,22429,117.45,0.00
vm22775,hhi_greedy_2opt_adapK_hull_multi,3.50,9712,231,831855,22439,117.87,0.00
vm22775,hhi_greedy_2opt_adapK_hull_multi,4.00,9712,227,836116,22446,117.92,0.00
vm22775,hhi_greedy_2opt_adapK_hull_multi,5.00,9712,222,839841,22449,117.82,0.00
vm22775,hhi_greedy_2opt_adapK_hull_multi,7.00,9712,213,849717,22428,117.91,0.00
vm22775,hhi_greedy_2opt_adapK_hull_multi,10.00,9712,227,849996,22458,118.54,0.00
vm22775,hhi_greedy_2opt_adapK_hull_multi,25.00,9712,236,848174,22532,119.64,0.00
vm22775,hhi_greedy_2opt_adapK_hull_multi,50.00,9712,218,874093,22534,121.23,0.00
vm22775,hhi_greedy_2opt_adapK_hull_multi,75.00,9712,226,878824,22577,121.74,0.00
vm22775,hhi_greedy_2opt_adapK_hull_multi,100.00,9712,210,887777,22588,121.01,0.00
vm22775,hhi_greedy_2opt_adapK_hull_multi,200.00,9712,205,908792,22611,122.16,0.00
ja9847,hhi_greedy_2opt_adapK_hull_multi,0.00,9712,64,769013,9763,114.35,0.00
ja9847,hhi_greedy_2opt_adapK_hull_multi,0.50,9712,72,771253,9767,114.98,0.00
ja9847,hhi_greedy_2opt_adapK_hull_multi,1.00,9712,72,779077,9762,115.31,0.00
ja9847,hhi_greedy_2opt_adapK_hull_multi,1.50,9712,66,776177,9772,115.36,0.00
ja9847,hhi_greedy_2opt_adapK_hull_multi,2.00,9712,65,780263,9786,115.35,0.00
ja9847,hhi_greedy_2opt_adapK_hull_multi,2.50,9712,67,785018,9759,116.18,0.00
ja9847,hhi_greedy_2opt_adapK_hull_multi,3.00,9712,65,781835,9762,116.14,0.00
ja9847,hhi_greedy_2opt_adapK_hull_multi,3.50,9712,66,770369,9758,115.42,0.00
ja9847,hhi_greedy_2opt_adapK_hull_multi,4.00,9712,62,783816,9786,115.81,0.00
ja9847,hhi_greedy_2opt_adapK_hull_multi,5.00,9712,64,775847,9764,116.01,0.00
ja9847,hhi_greedy_2opt_adapK_hull_multi,7.00,9712,62,791967,9777,115.85,0.00
ja9847,hhi_greedy_2opt_adapK_hull_multi,10.00,9712,63,779210,9790,117.13,0.00
ja9847,hhi_greedy_2opt_adapK_hull_multi,25.00,9712,87,781152,9788,118.56,0.00
ja9847,hhi_greedy_2opt_adapK_hull_multi,50.00,9712,69,786120,9795,120.25,0.00
ja9847,hhi_greedy_2opt_adapK_hull_multi,75.00,9712,69,796252,9804,120.86,0.00
ja9847,hhi_greedy_2opt_adapK_hull_multi,100.00,9712,68,804723,9818,121.41,0.00
ja9847,hhi_greedy_2opt_adapK_hull_multi,200.00,9712,70,837399,9818,123.01,0.00
mona-lisa100K,hhi_greedy_2opt_adapK_hull_multi,0.00,9712,2563,6883674,99951,119.16,0.00
mona-lisa100K,hhi_greedy_2opt_adapK_hull_multi,0.50,9764,2342,6886641,99968,119.37,0.00
mona-lisa100K,hhi_greedy_2opt_adapK_hull_multi,1.00,9764,2426,6890785,99954,119.26,0.00
mona-lisa100K,hhi_greedy_2opt_adapK_hull_multi,1.50,9892,2237,6884258,99965,119.49,0.00
mona-lisa100K,hhi_greedy_2opt_adapK_hull_multi,2.00,9892,2462,6886201,99958,119.61,0.00
mona-lisa100K,hhi_greedy_2opt_adapK_hull_multi,2.50,9892,2376,6877227,99961,119.73,0.00
mona-lisa100K,hhi_greedy_2opt_adapK_hull_multi,3.00,9892,3298,6902449,99967,119.73,0.00
mona-lisa100K,hhi_greedy_2opt_adapK_hull_multi,3.50,9892,2364,6888127,99965,119.95,0.00
mona-lisa100K,hhi_greedy_2opt_adapK_hull_multi,4.00,9892,2441,6876173,99969,119.82,0.00
mona-lisa100K,hhi_greedy_2opt_adapK_hull_multi,5.00,9892,2282,6887960,99962,120.01,0.00
mona-lisa100K,hhi_greedy_2opt_adapK_hull_multi,7.00,9892,2708,6901097,99949,120.35,0.00
mona-lisa100K,hhi_greedy_2opt_adapK_hull_multi,10.00,9892,2377,6897214,99954,120.64,0.00
mona-lisa100K,hhi_greedy_2opt_adapK_hull_multi,25.00,9892,2554,6914540,99959,122.13,0.00
mona-lisa100K,hhi_greedy_2opt_adapK_hull_multi,50.00,9892,2278,6911159,99967,124.20,0.00
mona-lisa100K,hhi_greedy_2opt_adapK_hull_multi,75.00,9892,2322,6951990,99970,125.26,0.00
mona-lisa100K,hhi_greedy_2opt_adapK_hull_multi,100.00,9892,2469,6984145,99969,126.08,0.00
mona-lisa100K,hhi_greedy_2opt_adapK_hull_multi,200.00,9892,2822,7034890,99973,127.95,0.00
