Dataset,Algorithm,Lambda,MemoryKB,TimeMS,TourLength,Bends,AvgBendAngle,Accuracy%
a20,hhi_greedy_basic_adapK_multi,0,7736,0,364,19,122.70,0.00
a20,hhi_greedy_basic_adapK_multi,0.50,7736,0,356,19,136.23,0.00
a20,hhi_greedy_basic_adapK_multi,1.00,7736,0,356,19,136.23,0.00
a20,hhi_greedy_basic_adapK_multi,1.50,7736,0,356,19,136.23,0.00
a20,hhi_greedy_basic_adapK_multi,2.00,7736,0,356,19,136.23,0.00
a20,hhi_greedy_basic_adapK_multi,2.50,7736,0,356,19,136.23,0.00
a20,hhi_greedy_basic_adapK_multi,3.00,7736,0,356,19,136.23,0.00
a20,hhi_greedy_basic_adapK_multi,3.50,7736,0,356,19,136.23,0.00
a20,hhi_greedy_basic_adapK_multi,4.00,7736,0,356,19,136.23,0.00
a20,hhi_greedy_basic_adapK_multi,5.00,7736,0,356,19,136.23,0.00
a20,hhi_greedy_basic_adapK_multi,7.00,7736,0,356,19,136.23,0.00
a20,hhi_greedy_basic_adapK_multi,10.00,7736,0,352,19,132.34,0.00
a20,hhi_greedy_basic_adapK_multi,25.00,7736,0,341,19,146.55,0.00
a20,hhi_greedy_basic_adapK_multi,50.00,7736,0,341,19,146.55,0.00
a20,hhi_greedy_basic_adapK_multi,75.00,7736,0,338,18,151.39,0.00
a20,hhi_greedy_basic_adapK_multi,100.00,7736,0,338,18,151.39,0.00
a20,hhi_greedy_basic_adapK_multi,200.00,7736,0,338,18,151.39,0.00
a280,hhi_greedy_basic_adapK_multi,0.00,7736,2,3221,277,136.29,0.00
a280,hhi_greedy_basic_adapK_multi,0.50,7736,2,3298,272,135.40,0.00
a280,hhi_greedy_basic_adapK_multi,1.00,7736,2,3298,272,135.40,0.00
a280,hhi_greedy_basic_adapK_multi,1.50,7736,2,3298,272,135.40,0.00
a280,hhi_greedy_basic_adapK_multi,2.00,7736,2,3298,272,135.40,0.00
a280,hhi_greedy_basic_adapK_multi,2.50,7736,2,3298,272,135.40,0.00
a280,hhi_greedy_basic_adapK_multi,3.00,7736,2,3298,272,135.40,0.00
a280,hhi_greedy_basic_adapK_multi,3.50,7736,2,3298,272,135.40,0.00
a280,hhi_greedy_basic_adapK_multi,4.00,7736,2,3298,272,135.40,0.00
a280,hhi_greedy_basic_adapK_multi,5.00,7736,2,3298,272,135.40,0.00
a280,hhi_greedy_basic_adapK_multi,7.00,7736,2,3298,272,135.40,0.00
a280,hhi_greedy_basic_adapK_multi,10.00,7736,2,3298,272,135.40,0.00
a280,hhi_greedy_basic_adapK_multi,25.00,7736,2,3248,276,138.65,0.00
a280,hhi_greedy_basic_adapK_multi,50.00,7736,2,3190,273,135.07,0.00
a280,hhi_greedy_basic_adapK_multi,75.00,7736,2,3190,273,135.07,0.00
a280,hhi_greedy_basic_adapK_multi,100.00,7736,2,3287,272,136.21,0.00
a280,hhi_greedy_basic_adapK_multi,200.00,7736,2,3357,275,143.04,0.00
xql662,hhi_greedy_basic_adapK_multi,0.00,7736,5,3149,653,130.72,0.00
xql662,hhi_greedy_basic_adapK_multi,0.50,7736,5,3141,650,133.07,0.00
xql662,hhi_greedy_basic_adapK_multi,1.00,7736,5,3119,655,132.75,0.00
xql662,hhi_greedy_basic_adapK_multi,1.50,7736,5,3175,653,136.49,0.00
xql662,hhi_greedy_basic_adapK_multi,2.00,7736,5,3188,653,136.51,0.00
xql662,hhi_greedy_basic_adapK_multi,2.50,7736,5,3188,653,136.69,0.00
xql662,hhi_greedy_basic_adapK_multi,3.00,7736,5,3311,654,133.37,0.00
xql662,hhi_greedy_basic_adapK_multi,3.50,7736,6,3276,650,133.91,0.00
xql662,hhi_greedy_basic_adapK_multi,4.00,7736,5,3276,650,133.91,0.00
xql662,hhi_greedy_basic_adapK_multi,5.00,7736,6,3323,653,135.92,0.00
xql662,hhi_greedy_basic_adapK_multi,7.00,7736,5,3265,654,135.04,0.00
xql662,hhi_greedy_basic_adapK_multi,10.00,7736,5,3321,657,135.61,0.00
xql662,hhi_greedy_basic_adapK_multi,25.00,7736,5,3411,656,137.13,0.00
xql662,hhi_greedy_basic_adapK_multi,50.00,7736,5,3536,659,136.53,0.00
xql662,hhi_greedy_basic_adapK_multi,75.00,7736,5,3587,658,139.58,0.00
xql662,hhi_greedy_basic_adapK_multi,100.00,7736,5,3563,660,139.88,0.00
xql662,hhi_greedy_basic_adapK_multi,200.00,7736,5,3587,661,140.00,0.00
kz9976,hhi_greedy_basic_adapK_multi,0.00,7736,80,1487767,9950,114.79,0.00
kz9976,hhi_greedy_basic_adapK_multi,0.50,7736,87,1502711,9947,114.36,0.00
kz9976,hhi_greedy_basic_adapK_multi,1.00,7736,87,1486351,9952,114.15,0.00
kz9976,hhi_greedy_basic_adapK_multi,1.50,7736,99,1468627,9947,114.70,0.00
kz9976,hhi_greedy_basic_adapK_multi,2.00,7736,80,1492087,9950,114.35,0.00
kz9976,hhi_greedy_basic_adapK_multi,2.50,7736,79,1494717,9953,115.03,0.00
kz9976,hhi_greedy_basic_adapK_multi,3.00,7736,86,1495406,9951,114.43,0.00
kz9976,hhi_greedy_basic_adapK_multi,3.50,7736,96,1493295,9950,114.44,0.00
kz9976,hhi_greedy_basic_adapK_multi,4.00,7736,97,1492822,9950,114.54,0.00
kz9976,hhi_greedy_basic_adapK_multi,5.00,7736,84,1477543,9950,115.20,0.00
kz9976,hhi_greedy_basic_adapK_multi,7.00,7736,78,1490888,9948,115.12,0.00
kz9976,hhi_greedy_basic_adapK_multi,10.00,7736,81,1480588,9946,115.45,0.00
kz9976,hhi_greedy_basic_adapK_multi,25.00,7736,83,1483721,9946,115.30,0.00
kz9976,hhi_greedy_basic_adapK_multi,50.00,7736,87,1479156,9949,117.07,0.00
kz9976,hhi_greedy_basic_adapK_multi,75.00,7736,82,1496505,9952,117.59,0.00
kz9976,hhi_greedy_basic_adapK_multi,100.00,7736,80,1472808,9960,117.88,0.00
kz9976,hhi_greedy_basic_adapK_multi,200.00,7736,78,1526320,9961,119.33,0.00
ei8246,hhi_greedy_basic_adapK_multi,0.00,7736,96,265414,8240,117.60,0.00
ei8246,hhi_greedy_basic_adapK_multi,0.50,7736,93,264565,8234,117.39,0.00
ei8246,hhi_greedy_basic_adapK_multi,1.00,7736,97,265399,8230,116.69,0.00
ei8246,hhi_greedy_basic_adapK_multi,1.50,7736,98,261824,8229,117.24,0.00
ei8246,hhi_greedy_basic_adapK_multi,2.00,7736,97,264625,8233,117.15,0.00
ei8246,hhi_greedy_basic_adapK_multi,2.50,7736,99,265143,8230,117.59,0.00
ei8246,hhi_greedy_basic_adapK_multi,3.00,7736,97,264595,8236,117.79,0.00
ei8246,hhi_greedy_basic_adapK_multi,3.50,7736,96,264298,8235,117.79,0.00
ei8246,hhi_greedy_basic_adapK_multi,4.00,7736,98,265650,8230,117.67,0.00
ei8246,hhi_greedy_basic_adapK_multi,5.00,7736,93,265654,8233,118.23,0.00
ei8246,hhi_greedy_basic_adapK_multi,7.00,7736,95,264906,8239,118.83,0.00
ei8246,hhi_greedy_basic_adapK_multi,10.00,7736,95,267164,8238,119.33,0.00
ei8246,hhi_greedy_basic_adapK_multi,25.00,7736,97,271970,8236,120.76,0.00
ei8246,hhi_greedy_basic_adapK_multi,50.00,7736,108,274406,8240,123.61,0.00
ei8246,hhi_greedy_basic_adapK_multi,75.00,7736,94,279732,8239,125.09,0.00
ei8246,hhi_greedy_basic_adapK_multi,100.00,7736,101,284171,8239,125.95,0.00
ei8246,hhi_greedy_basic_adapK_multi,200.00,7736,104,289240,8242,127.67,0.00
vm22775,hhi_greedy_basic_adapK_multi,0.00,7736,237,844349,22360,114.85,0.00
vm22775,hhi_greedy_basic_adapK_multi,0.50,7736,173,842099,22422,117.09,0.00
vm22775,hhi_greedy_basic_adapK_multi,1.00,7736,183,844438,22427,117.20,0.00
vm22775,hhi_greedy_basic_adapK_multi,1.50,7736,176,836331,22422,117.45,0.00
vm22775,hhi_greedy_basic_adapK_multi,2.00,7736,179,836387,22420,117.39,0.00
vm22775,hhi_greedy_basic_adapK_multi,2.50,7736,185,833375,22427,117.44,0.00
vm22775,hhi_greedy_basic_adapK_multi,3.00,7736,189,830312,22429,117.46,0.00
vm22775,hhi_greedy_basic_adapK_multi,3.50,7736,191,834813,22422,117.83,0.00
vm22775,hhi_greedy_basic_adapK_multi,4.00,7736,185,835524,22438,117.91,0.00
vm22775,hhi_greedy_basic_adapK_multi,5.00,7736,185,838728,22440,117.85,0.00
vm22775,hhi_greedy_basic_adapK_multi,7.00,7736,199,849792,22427,117.92,0.00
vm22775,hhi_greedy_basic_adapK_multi,10.00,7736,197,847531,22469,118.45,0.00
vm22775,hhi_greedy_basic_adapK_multi,25.00,7736,205,848014,22532,119.67,0.00
vm22775,hhi_greedy_basic_adapK_multi,50.00,7736,186,874605,22571,121.22,0.00
vm22775,hhi_greedy_basic_adapK_multi,75.00,7736,223,878894,22578,121.91,0.00
vm22775,hhi_greedy_basic_adapK_multi,100.00,7736,203,887683,22633,122.28,0.00
vm22775,hhi_greedy_basic_adapK_multi,200.00,7736,216,909818,22610,122.18,0.00
ja9847,hhi_greedy_basic_adapK_multi,0.00,7736,69,769134,9763,114.34,0.00
ja9847,hhi_greedy_basic_adapK_multi,0.50,7736,63,771301,9767,114.98,0.00
ja9847,hhi_greedy_basic_adapK_multi,1.00,7736,63,779125,9762,115.31,0.00
ja9847,hhi_greedy_basic_adapK_multi,1.50,7736,68,776225,9772,115.36,0.00
ja9847,hhi_greedy_basic_adapK_multi,2.00,7736,58,780322,9786,115.35,0.00
ja9847,hhi_greedy_basic_adapK_multi,2.50,7736,58,785066,9759,116.19,0.00
ja9847,hhi_greedy_basic_adapK_multi,3.00,7736,65,781883,9762,116.14,0.00
ja9847,hhi_greedy_basic_adapK_multi,3.50,7736,57,770417,9758,115.43,0.00
ja9847,hhi_greedy_basic_adapK_multi,4.00,7736,60,783875,9786,115.81,0.00
ja9847,hhi_greedy_basic_adapK_multi,5.00,7736,60,775895,9764,116.01,0.00
ja9847,hhi_greedy_basic_adapK_multi,7.00,7736,63,792026,9777,115.84,0.00
ja9847,hhi_greedy_basic_adapK_multi,10.00,7736,58,779258,9790,117.14,0.00
ja9847,hhi_greedy_basic_adapK_multi,25.00,7736,61,781218,9788,118.57,0.00
ja9847,hhi_greedy_basic_adapK_multi,50.00,7736,62,786186,9795,120.25,0.00
ja9847,hhi_greedy_basic_adapK_multi,75.00,7736,95,796313,9804,120.87,0.00
ja9847,hhi_greedy_basic_adapK_multi,100.00,7736,64,804789,9818,121.41,0.00
ja9847,hhi_greedy_basic_adapK_multi,200.00,7736,61,839032,9817,122.55,0.00
mona-lisa100K,hhi_greedy_basic_adapK_multi,0.00,9176,2343,6883271,99951,119.16,0.00
mona-lisa100K,hhi_greedy_basic_adapK_multi,0.50,9176,2223,6886658,99968,119.37,0.00
mona-lisa100K,hhi_greedy_basic_adapK_multi,1.00,9304,2504,6890855,99955,119.26,0.00
mona-lisa100K,hhi_greedy_basic_adapK_multi,1.50,9688,2248,6884264,99965,119.49,0.00
mona-lisa100K,hhi_greedy_basic_adapK_multi,2.00,9688,2381,6886205,99958,119.61,0.00
mona-lisa100K,hhi_greedy_basic_adapK_multi,2.50,9688,2513,6877229,99961,119.73,0.00
mona-lisa100K,hhi_greedy_basic_adapK_multi,3.00,9688,2322,6901554,99967,119.73,0.00
mona-lisa100K,hhi_greedy_basic_adapK_multi,3.50,9688,2431,6887963,99965,119.96,0.00
mona-lisa100K,hhi_greedy_basic_adapK_multi,4.00,9688,2280,6876179,99969,119.82,0.00
mona-lisa100K,hhi_greedy_basic_adapK_multi,5.00,9688,2278,6887998,99962,120.01,0.00
mona-lisa100K,hhi_greedy_basic_adapK_multi,7.00,9688,2521,6901081,99950,120.35,0.00
mona-lisa100K,hhi_greedy_basic_adapK_multi,10.00,9688,2344,6897258,99954,120.64,0.00
mona-lisa100K,hhi_greedy_basic_adapK_multi,25.00,9688,2405,6913815,99959,122.13,0.00
mona-lisa100K,hhi_greedy_basic_adapK_multi,50.00,9688,2250,6911147,99967,124.20,0.00
mona-lisa100K,hhi_greedy_basic_adapK_multi,75.00,9688,2351,6951666,99970,125.26,0.00
mona-lisa100K,hhi_greedy_basic_adapK_multi,100.00,9688,2450,6984157,99969,126.08,0.00
mona-lisa100K,hhi_greedy_basic_adapK_multi,200.00,9688,2433,7030021,99972,127.89,0.00
