Dataset,Algorithm,Lambda,MemoryKB,TimeMS,TourLength,Bends,AvgBendAngle,Accuracy%
a20,hhi_greedy_basic_adapK_9CellMean,0,7736,0,370,19,113.22,0.00
a20,hhi_greedy_basic_adapK_9CellMean,0.50,7736,0,370,19,113.22,0.00
a20,hhi_greedy_basic_adapK_9CellMean,1.00,7736,0,370,19,113.22,0.00
a20,hhi_greedy_basic_adapK_9CellMean,1.50,7736,0,370,19,113.22,0.00
a20,hhi_greedy_basic_adapK_9CellMean,2.00,7736,0,370,19,113.22,0.00
a20,hhi_greedy_basic_adapK_9CellMean,2.50,7736,0,370,19,113.22,0.00
a20,hhi_greedy_basic_adapK_9CellMean,3.00,7736,0,370,19,113.22,0.00
a20,hhi_greedy_basic_adapK_9CellMean,3.50,7736,0,370,19,113.22,0.00
a20,hhi_greedy_basic_adapK_9CellMean,4.00,7736,0,370,19,113.22,0.00
a20,hhi_greedy_basic_adapK_9CellMean,5.00,7736,0,370,19,113.22,0.00
a20,hhi_greedy_basic_adapK_9CellMean,7.00,7736,0,370,19,113.22,0.00
a20,hhi_greedy_basic_adapK_9CellMean,10.00,7736,0,370,19,113.22,0.00
a20,hhi_greedy_basic_adapK_9CellMean,25.00,7736,0,370,19,113.22,0.00
a20,hhi_greedy_basic_adapK_9CellMean,50.00,7736,0,362,19,126.75,0.00
a20,hhi_greedy_basic_adapK_9CellMean,75.00,7736,0,412,18,119.51,0.00
a20,hhi_greedy_basic_adapK_9CellMean,100.00,7736,0,412,18,119.51,0.00
a20,hhi_greedy_basic_adapK_9CellMean,200.00,7736,0,412,18,119.51,0.00
a280,hhi_greedy_basic_adapK_9CellMean,0.00,7736,0,3419,273,134.69,0.00
a280,hhi_greedy_basic_adapK_9CellMean,0.50,7736,0,3427,273,134.69,0.00
a280,hhi_greedy_basic_adapK_9CellMean,1.00,7736,0,3427,273,134.69,0.00
a280,hhi_greedy_basic_adapK_9CellMean,1.50,7736,0,3427,273,134.69,0.00
a280,hhi_greedy_basic_adapK_9CellMean,2.00,7736,0,3427,273,134.69,0.00
a280,hhi_greedy_basic_adapK_9CellMean,2.50,7736,0,3427,273,134.69,0.00
a280,hhi_greedy_basic_adapK_9CellMean,3.00,7736,0,3427,273,134.69,0.00
a280,hhi_greedy_basic_adapK_9CellMean,3.50,7736,0,3427,273,134.69,0.00
a280,hhi_greedy_basic_adapK_9CellMean,4.00,7736,0,3427,273,134.69,0.00
a280,hhi_greedy_basic_adapK_9CellMean,5.00,7736,0,3427,273,134.69,0.00
a280,hhi_greedy_basic_adapK_9CellMean,7.00,7736,0,3427,273,134.69,0.00
a280,hhi_greedy_basic_adapK_9CellMean,10.00,7736,0,3427,273,134.69,0.00
a280,hhi_greedy_basic_adapK_9CellMean,25.00,7736,0,3360,273,133.53,0.00
a280,hhi_greedy_basic_adapK_9CellMean,50.00,7736,0,3395,274,138.02,0.00
a280,hhi_greedy_basic_adapK_9CellMean,75.00,7736,0,3395,274,138.02,0.00
a280,hhi_greedy_basic_adapK_9CellMean,100.00,7736,0,3395,274,138.02,0.00
a280,hhi_greedy_basic_adapK_9CellMean,200.00,7736,0,3438,272,133.87,0.00
xql662,hhi_greedy_basic_adapK_9CellMean,0.00,7736,0,3468,646,128.09,0.00
xql662,hhi_greedy_basic_adapK_9CellMean,0.50,7736,0,3442,646,129.29,0.00
xql662,hhi_greedy_basic_adapK_9CellMean,1.00,7736,0,3478,645,130.05,0.00
xql662,hhi_greedy_basic_adapK_9CellMean,1.50,7736,0,3563,653,129.89,0.00
xql662,hhi_greedy_basic_adapK_9CellMean,2.00,7736,0,3624,653,129.59,0.00
xql662,hhi_greedy_basic_adapK_9CellMean,2.50,7736,0,3601,652,129.61,0.00
xql662,hhi_greedy_basic_adapK_9CellMean,3.00,7736,0,3594,654,129.87,0.00
xql662,hhi_greedy_basic_adapK_9CellMean,3.50,7736,0,3531,652,130.40,0.00
xql662,hhi_greedy_basic_adapK_9CellMean,4.00,7736,0,3668,655,129.73,0.00
xql662,hhi_greedy_basic_adapK_9CellMean,5.00,7736,0,3674,655,129.83,0.00
xql662,hhi_greedy_basic_adapK_9CellMean,7.00,7736,0,3507,655,131.72,0.00
xql662,hhi_greedy_basic_adapK_9CellMean,10.00,7736,0,3595,657,132.58,0.00
xql662,hhi_greedy_basic_adapK_9CellMean,25.00,7736,0,3794,655,133.77,0.00
xql662,hhi_greedy_basic_adapK_9CellMean,50.00,7736,0,3677,655,136.53,0.00
xql662,hhi_greedy_basic_adapK_9CellMean,75.00,7736,0,3675,659,136.04,0.00
xql662,hhi_greedy_basic_adapK_9CellMean,100.00,7736,0,4019,659,134.09,0.00
xql662,hhi_greedy_basic_adapK_9CellMean,200.00,7736,0,3862,660,136.48,0.00
kz9976,hhi_greedy_basic_adapK_9CellMean,0.00,7736,5,1674745,9937,111.69,0.00
kz9976,hhi_greedy_basic_adapK_9CellMean,0.50,7736,5,1662252,9942,111.99,0.00
kz9976,hhi_greedy_basic_adapK_9CellMean,1.00,7736,6,1662307,9942,112.01,0.00
kz9976,hhi_greedy_basic_adapK_9CellMean,1.50,7736,6,1661399,9942,112.02,0.00
kz9976,hhi_greedy_basic_adapK_9CellMean,2.00,7736,5,1662865,9941,111.92,0.00
kz9976,hhi_greedy_basic_adapK_9CellMean,2.50,7736,5,1662404,9942,111.90,0.00
kz9976,hhi_greedy_basic_adapK_9CellMean,3.00,7736,5,1661932,9942,111.86,0.00
kz9976,hhi_greedy_basic_adapK_9CellMean,3.50,7736,5,1661726,9942,111.89,0.00
kz9976,hhi_greedy_basic_adapK_9CellMean,4.00,7736,5,1678064,9945,112.11,0.00
kz9976,hhi_greedy_basic_adapK_9CellMean,5.00,7736,5,1663189,9941,112.15,0.00
kz9976,hhi_greedy_basic_adapK_9CellMean,7.00,7736,5,1674327,9942,112.38,0.00
kz9976,hhi_greedy_basic_adapK_9CellMean,10.00,7736,5,1686183,9948,111.96,0.00
kz9976,hhi_greedy_basic_adapK_9CellMean,25.00,7736,6,1660533,9946,113.14,0.00
kz9976,hhi_greedy_basic_adapK_9CellMean,50.00,7736,6,1664030,9952,113.99,0.00
kz9976,hhi_greedy_basic_adapK_9CellMean,75.00,7736,5,1679746,9958,113.60,0.00
kz9976,hhi_greedy_basic_adapK_9CellMean,100.00,7736,5,1683256,9946,113.99,0.00
kz9976,hhi_greedy_basic_adapK_9CellMean,200.00,7736,5,1684916,9954,116.56,0.00
ei8246,hhi_greedy_basic_adapK_9CellMean,0.00,7736,8,278826,8229,114.75,0.00
ei8246,hhi_greedy_basic_adapK_9CellMean,0.50,7736,10,279804,8229,114.39,0.00
ei8246,hhi_greedy_basic_adapK_9CellMean,1.00,7736,8,279831,8229,114.87,0.00
ei8246,hhi_greedy_basic_adapK_9CellMean,1.50,7736,7,278881,8233,115.24,0.00
ei8246,hhi_greedy_basic_adapK_9CellMean,2.00,7736,8,280154,8229,114.90,0.00
ei8246,hhi_greedy_basic_adapK_9CellMean,2.50,7736,10,281412,8227,114.92,0.00
ei8246,hhi_greedy_basic_adapK_9CellMean,3.00,7736,10,281602,8228,115.26,0.00
ei8246,hhi_greedy_basic_adapK_9CellMean,3.50,7736,7,283741,8221,115.15,0.00
ei8246,hhi_greedy_basic_adapK_9CellMean,4.00,7736,7,284306,8225,115.12,0.00
ei8246,hhi_greedy_basic_adapK_9CellMean,5.00,7736,8,283425,8231,115.89,0.00
ei8246,hhi_greedy_basic_adapK_9CellMean,7.00,7736,9,284611,8233,115.73,0.00
ei8246,hhi_greedy_basic_adapK_9CellMean,10.00,7736,9,283627,8225,116.36,0.00
ei8246,hhi_greedy_basic_adapK_9CellMean,25.00,7736,8,286276,8225,117.98,0.00
ei8246,hhi_greedy_basic_adapK_9CellMean,50.00,7736,8,283859,8241,119.69,0.00
ei8246,hhi_greedy_basic_adapK_9CellMean,75.00,7736,7,294713,8233,121.28,0.00
ei8246,hhi_greedy_basic_adapK_9CellMean,100.00,7736,8,296358,8235,122.31,0.00
ei8246,hhi_greedy_basic_adapK_9CellMean,200.00,7736,8,303914,8238,124.46,0.00
vm22775,hhi_greedy_basic_adapK_9CellMean,0.00,7736,20,885141,22245,115.40,0.00
vm22775,hhi_greedy_basic_adapK_9CellMean,0.50,7736,19,904843,22304,116.74,0.00
vm22775,hhi_greedy_basic_adapK_9CellMean,1.00,7736,17,902523,22294,116.78,0.00
vm22775,hhi_greedy_basic_adapK_9CellMean,1.50,7736,17,902409,22288,116.75,0.00
vm22775,hhi_greedy_basic_adapK_9CellMean,2.00,7736,17,901314,22292,116.79,0.00
vm22775,hhi_greedy_basic_adapK_9CellMean,2.50,7736,18,902829,22309,116.73,0.00
vm22775,hhi_greedy_basic_adapK_9CellMean,3.00,7736,19,901112,22319,116.78,0.00
vm22775,hhi_greedy_basic_adapK_9CellMean,3.50,7736,18,896792,22327,116.77,0.00
vm22775,hhi_greedy_basic_adapK_9CellMean,4.00,7736,18,897781,22338,116.94,0.00
vm22775,hhi_greedy_basic_adapK_9CellMean,5.00,7736,17,898427,22339,117.14,0.00
vm22775,hhi_greedy_basic_adapK_9CellMean,7.00,7736,22,907657,22350,117.43,0.00
vm22775,hhi_greedy_basic_adapK_9CellMean,10.00,7736,12,896422,22344,117.80,0.00
vm22775,hhi_greedy_basic_adapK_9CellMean,25.00,7736,16,901067,22409,118.96,0.00
vm22775,hhi_greedy_basic_adapK_9CellMean,50.00,7736,17,895670,22477,119.68,0.00
vm22775,hhi_greedy_basic_adapK_9CellMean,75.00,7736,13,924768,22501,120.16,0.00
vm22775,hhi_greedy_basic_adapK_9CellMean,100.00,7736,12,924827,22529,120.35,0.00
vm22775,hhi_greedy_basic_adapK_9CellMean,200.00,7736,14,940157,22584,121.38,0.00
ja9847,hhi_greedy_basic_adapK_9CellMean,0.00,7736,7,834740,9757,113.78,0.00
ja9847,hhi_greedy_basic_adapK_9CellMean,0.50,7736,6,816847,9762,114.73,0.00
ja9847,hhi_greedy_basic_adapK_9CellMean,1.00,7736,6,822148,9759,114.65,0.00
ja9847,hhi_greedy_basic_adapK_9CellMean,1.50,7736,6,822691,9757,114.85,0.00
ja9847,hhi_greedy_basic_adapK_9CellMean,2.00,7736,6,822822,9763,115.04,0.00
ja9847,hhi_greedy_basic_adapK_9CellMean,2.50,7736,6,823318,9764,115.30,0.00
ja9847,hhi_greedy_basic_adapK_9CellMean,3.00,7736,6,817179,9767,115.39,0.00
ja9847,hhi_greedy_basic_adapK_9CellMean,3.50,7736,6,816916,9767,115.65,0.00
ja9847,hhi_greedy_basic_adapK_9CellMean,4.00,7736,6,821014,9767,115.90,0.00
ja9847,hhi_greedy_basic_adapK_9CellMean,5.00,7736,6,806514,9771,115.69,0.00
ja9847,hhi_greedy_basic_adapK_9CellMean,7.00,7736,6,806630,9773,116.09,0.00
ja9847,hhi_greedy_basic_adapK_9CellMean,10.00,7736,7,823881,9778,116.35,0.00
ja9847,hhi_greedy_basic_adapK_9CellMean,25.00,7736,6,821664,9787,117.71,0.00
ja9847,hhi_greedy_basic_adapK_9CellMean,50.00,7736,8,848413,9813,119.58,0.00
ja9847,hhi_greedy_basic_adapK_9CellMean,75.00,7736,7,844770,9810,120.19,0.00
ja9847,hhi_greedy_basic_adapK_9CellMean,100.00,7736,6,824059,9808,120.68,0.00
ja9847,hhi_greedy_basic_adapK_9CellMean,200.00,7736,7,860435,9821,121.33,0.00
mona-lisa100K,hhi_greedy_basic_adapK_9CellMean,0.00,7736,274,6983289,99948,116.70,0.00
mona-lisa100K,hhi_greedy_basic_adapK_9CellMean,0.50,7736,228,6979596,99948,116.73,0.00
mona-lisa100K,hhi_greedy_basic_adapK_9CellMean,1.00,7736,344,6987561,99952,116.94,0.00
mona-lisa100K,hhi_greedy_basic_adapK_9CellMean,1.50,7736,283,6983492,99953,117.02,0.00
mona-lisa100K,hhi_greedy_basic_adapK_9CellMean,2.00,7736,287,6979036,99954,116.92,0.00
mona-lisa100K,hhi_greedy_basic_adapK_9CellMean,2.50,7736,285,6985517,99952,117.16,0.00
mona-lisa100K,hhi_greedy_basic_adapK_9CellMean,3.00,7736,220,6975219,99945,117.22,0.00
mona-lisa100K,hhi_greedy_basic_adapK_9CellMean,3.50,7736,252,6979003,99964,117.27,0.00
mona-lisa100K,hhi_greedy_basic_adapK_9CellMean,4.00,7736,276,6974516,99962,117.22,0.00
mona-lisa100K,hhi_greedy_basic_adapK_9CellMean,5.00,7736,334,7000362,99950,117.47,0.00
mona-lisa100K,hhi_greedy_basic_adapK_9CellMean,7.00,7736,228,6998813,99956,117.89,0.00
mona-lisa100K,hhi_greedy_basic_adapK_9CellMean,10.00,7736,240,6969885,99955,117.98,0.00
mona-lisa100K,hhi_greedy_basic_adapK_9CellMean,25.00,7736,211,6983798,99951,119.64,0.00
mona-lisa100K,hhi_greedy_basic_adapK_9CellMean,50.00,7736,295,7025191,99956,121.36,0.00
mona-lisa100K,hhi_greedy_basic_adapK_9CellMean,75.00,7736,243,7056986,99962,122.55,0.00
mona-lisa100K,hhi_greedy_basic_adapK_9CellMean,100.00,7736,212,7068921,99964,123.27,0.00
mona-lisa100K,hhi_greedy_basic_adapK_9CellMean,200.00,7736,232,7126620,99972,125.10,0.00
