Dataset,Algorithm,Lambda,MemoryKB,TimeMS,TourLength,Bends,AvgBendAngle,Accuracy%
a20,hhi_greedy_2opt,0,7168,0,370,19,113.22,0.00
a20,hhi_greedy_2opt,0.50,7168,0,370,19,113.22,0.00
a20,hhi_greedy_2opt,1.00,7168,0,370,19,113.22,0.00
a20,hhi_greedy_2opt,1.50,7168,0,370,19,113.22,0.00
a20,hhi_greedy_2opt,2.00,7168,0,370,19,113.22,0.00
a20,hhi_greedy_2opt,2.50,7168,0,370,19,113.22,0.00
a20,hhi_greedy_2opt,3.00,7168,0,370,19,113.22,0.00
a20,hhi_greedy_2opt,3.50,7168,0,370,19,113.22,0.00
a20,hhi_greedy_2opt,4.00,7168,0,370,19,113.22,0.00
a20,hhi_greedy_2opt,5.00,7168,0,370,19,113.22,0.00
a20,hhi_greedy_2opt,7.00,7168,0,370,19,113.22,0.00
a20,hhi_greedy_2opt,10.00,7168,0,370,19,113.22,0.00
a20,hhi_greedy_2opt,25.00,7168,0,370,19,113.22,0.00
a20,hhi_greedy_2opt,50.00,7168,0,365,18,128.79,0.00
a20,hhi_greedy_2opt,75.00,7168,0,415,18,114.51,0.00
a20,hhi_greedy_2opt,100.00,7168,0,415,18,114.51,0.00
a20,hhi_greedy_2opt,200.00,7168,0,415,18,114.51,0.00
a280,hhi_greedy_2opt,0.00,7168,0,3353,274,134.27,0.00
a280,hhi_greedy_2opt,0.50,7168,0,3353,274,134.27,0.00
a280,hhi_greedy_2opt,1.00,7168,0,3353,274,134.27,0.00
a280,hhi_greedy_2opt,1.50,7168,0,3353,274,134.27,0.00
a280,hhi_greedy_2opt,2.00,7168,0,3353,274,134.27,0.00
a280,hhi_greedy_2opt,2.50,7168,0,3353,274,134.27,0.00
a280,hhi_greedy_2opt,3.00,7168,0,3353,274,134.27,0.00
a280,hhi_greedy_2opt,3.50,7168,0,3353,274,134.27,0.00
a280,hhi_greedy_2opt,4.00,7168,0,3353,274,134.27,0.00
a280,hhi_greedy_2opt,5.00,7168,0,3353,274,134.27,0.00
a280,hhi_greedy_2opt,7.00,7168,0,3372,274,136.04,0.00
a280,hhi_greedy_2opt,10.00,7168,0,3372,274,136.04,0.00
a280,hhi_greedy_2opt,25.00,7168,0,3372,274,136.04,0.00
a280,hhi_greedy_2opt,50.00,7168,0,3372,274,136.04,0.00
a280,hhi_greedy_2opt,75.00,7168,0,3372,274,136.04,0.00
a280,hhi_greedy_2opt,100.00,7168,0,3372,274,136.04,0.00
a280,hhi_greedy_2opt,200.00,7168,0,3643,274,135.03,0.00
xql662,hhi_greedy_2opt,0.00,7168,0,3338,651,131.19,0.00
xql662,hhi_greedy_2opt,0.50,7168,0,3424,653,131.97,0.00
xql662,hhi_greedy_2opt,1.00,7168,0,3614,647,130.17,0.00
xql662,hhi_greedy_2opt,1.50,7168,0,3613,652,132.49,0.00
xql662,hhi_greedy_2opt,2.00,7168,0,3440,654,134.90,0.00
xql662,hhi_greedy_2opt,2.50,7168,0,3438,656,136.61,0.00
xql662,hhi_greedy_2opt,3.00,7168,0,3387,657,135.48,0.00
xql662,hhi_greedy_2opt,3.50,7168,0,3497,651,134.12,0.00
xql662,hhi_greedy_2opt,4.00,7168,0,3503,651,132.95,0.00
xql662,hhi_greedy_2opt,5.00,7168,0,3312,654,133.04,0.00
xql662,hhi_greedy_2opt,7.00,7168,0,3397,657,135.31,0.00
xql662,hhi_greedy_2opt,10.00,7168,0,3459,652,132.94,0.00
xql662,hhi_greedy_2opt,25.00,7168,0,3651,659,136.46,0.00
xql662,hhi_greedy_2opt,50.00,7168,0,3769,658,135.22,0.00
xql662,hhi_greedy_2opt,75.00,7168,0,3766,656,134.08,0.00
xql662,hhi_greedy_2opt,100.00,7168,0,3701,659,137.57,0.00
xql662,hhi_greedy_2opt,200.00,7168,0,3652,659,140.63,0.00
kz9976,hhi_greedy_2opt,0.00,7168,8,1558937,9946,114.03,0.00
kz9976,hhi_greedy_2opt,0.50,7168,9,1560040,9956,114.35,0.00
kz9976,hhi_greedy_2opt,1.00,7168,9,1541380,9956,114.44,0.00
kz9976,hhi_greedy_2opt,1.50,7168,8,1532002,9953,114.52,0.00
kz9976,hhi_greedy_2opt,2.00,7168,8,1532021,9952,114.55,0.00
kz9976,hhi_greedy_2opt,2.50,7168,9,1532061,9950,114.53,0.00
kz9976,hhi_greedy_2opt,3.00,7168,9,1527292,9952,114.55,0.00
kz9976,hhi_greedy_2opt,3.50,7168,9,1534829,9954,114.52,0.00
kz9976,hhi_greedy_2opt,4.00,7168,8,1550604,9954,114.51,0.00
kz9976,hhi_greedy_2opt,5.00,7168,8,1539899,9957,114.72,0.00
kz9976,hhi_greedy_2opt,7.00,7168,8,1534734,9952,115.10,0.00
kz9976,hhi_greedy_2opt,10.00,7168,8,1539644,9951,115.15,0.00
kz9976,hhi_greedy_2opt,25.00,7168,9,1534691,9959,115.45,0.00
kz9976,hhi_greedy_2opt,50.00,7168,7,1535452,9955,116.18,0.00
kz9976,hhi_greedy_2opt,75.00,7168,8,1597203,9954,116.55,0.00
kz9976,hhi_greedy_2opt,100.00,7168,8,1555614,9957,117.51,0.00
kz9976,hhi_greedy_2opt,200.00,7168,9,1594207,9951,118.63,0.00
ei8246,hhi_greedy_2opt,0.00,7168,8,280027,8232,115.20,0.00
ei8246,hhi_greedy_2opt,0.50,7168,7,279720,8231,115.07,0.00
ei8246,hhi_greedy_2opt,1.00,7168,8,273260,8227,115.34,0.00
ei8246,hhi_greedy_2opt,1.50,7168,7,272939,8232,115.90,0.00
ei8246,hhi_greedy_2opt,2.00,7168,7,272125,8233,116.02,0.00
ei8246,hhi_greedy_2opt,2.50,7168,7,273140,8231,115.53,0.00
ei8246,hhi_greedy_2opt,3.00,7168,8,276171,8229,116.23,0.00
ei8246,hhi_greedy_2opt,3.50,7168,7,279398,8233,116.11,0.00
ei8246,hhi_greedy_2opt,4.00,7168,7,277084,8233,116.53,0.00
ei8246,hhi_greedy_2opt,5.00,7168,8,279011,8230,117.07,0.00
ei8246,hhi_greedy_2opt,7.00,7168,7,276952,8233,116.42,0.00
ei8246,hhi_greedy_2opt,10.00,7168,9,278906,8231,117.85,0.00
ei8246,hhi_greedy_2opt,25.00,7168,8,279924,8234,119.67,0.00
ei8246,hhi_greedy_2opt,50.00,7168,7,284359,8242,121.35,0.00
ei8246,hhi_greedy_2opt,75.00,7168,7,289014,8237,121.83,0.00
ei8246,hhi_greedy_2opt,100.00,7168,7,294531,8236,123.74,0.00
ei8246,hhi_greedy_2opt,200.00,7168,6,297798,8240,126.02,0.00
vm22775,hhi_greedy_2opt,0.00,7168,21,823014,22387,116.33,0.00
vm22775,hhi_greedy_2opt,0.50,7168,20,818579,22452,117.83,0.00
vm22775,hhi_greedy_2opt,1.00,7168,19,823602,22449,117.83,0.00
vm22775,hhi_greedy_2opt,1.50,7168,19,827086,22452,117.88,0.00
vm22775,hhi_greedy_2opt,2.00,7168,19,830554,22463,117.91,0.00
vm22775,hhi_greedy_2opt,2.50,7168,20,817565,22477,117.84,0.00
vm22775,hhi_greedy_2opt,3.00,7168,21,816597,22476,117.86,0.00
vm22775,hhi_greedy_2opt,3.50,7168,20,827151,22479,118.04,0.00
vm22775,hhi_greedy_2opt,4.00,7168,20,817012,22485,117.85,0.00
vm22775,hhi_greedy_2opt,5.00,7168,20,816316,22471,118.06,0.00
vm22775,hhi_greedy_2opt,7.00,7168,20,816219,22478,118.42,0.00
vm22775,hhi_greedy_2opt,10.00,7168,19,838968,22487,118.57,0.00
vm22775,hhi_greedy_2opt,25.00,7168,22,830228,22522,119.80,0.00
vm22775,hhi_greedy_2opt,50.00,7168,21,844822,22587,120.52,0.00
vm22775,hhi_greedy_2opt,75.00,7168,21,846822,22609,121.08,0.00
vm22775,hhi_greedy_2opt,100.00,7168,21,860537,22638,121.59,0.00
vm22775,hhi_greedy_2opt,200.00,7168,20,888288,22672,122.13,0.00
ja9847,hhi_greedy_2opt,0.00,7168,9,751823,9782,116.44,0.00
ja9847,hhi_greedy_2opt,0.50,7168,9,739374,9794,116.79,0.00
ja9847,hhi_greedy_2opt,1.00,7168,11,743378,9793,117.04,0.00
ja9847,hhi_greedy_2opt,1.50,7168,8,743703,9788,117.33,0.00
ja9847,hhi_greedy_2opt,2.00,7168,9,730876,9788,117.36,0.00
ja9847,hhi_greedy_2opt,2.50,7168,8,730152,9791,117.70,0.00
ja9847,hhi_greedy_2opt,3.00,7168,8,725627,9796,118.24,0.00
ja9847,hhi_greedy_2opt,3.50,7168,8,729613,9794,118.34,0.00
ja9847,hhi_greedy_2opt,4.00,7168,8,738817,9791,118.20,0.00
ja9847,hhi_greedy_2opt,5.00,7168,10,722158,9794,118.38,0.00
ja9847,hhi_greedy_2opt,7.00,7168,8,736528,9798,118.88,0.00
ja9847,hhi_greedy_2opt,10.00,7168,8,739571,9795,119.30,0.00
ja9847,hhi_greedy_2opt,25.00,7168,9,772607,9810,120.26,0.00
ja9847,hhi_greedy_2opt,50.00,7168,9,763310,9813,122.03,0.00
ja9847,hhi_greedy_2opt,75.00,7168,9,757272,9821,122.94,0.00
ja9847,hhi_greedy_2opt,100.00,7168,8,767646,9820,123.29,0.00
ja9847,hhi_greedy_2opt,200.00,7168,7,805301,9827,124.05,0.00
mona-lisa100K,hhi_greedy_2opt,0.00,7352,192,6999911,99959,116.41,0.00
mona-lisa100K,hhi_greedy_2opt,0.50,7352,177,6989533,99955,116.56,0.00
mona-lisa100K,hhi_greedy_2opt,1.00,7352,192,6999283,99951,116.56,0.00
mona-lisa100K,hhi_greedy_2opt,1.50,7352,179,6979185,99945,116.54,0.00
mona-lisa100K,hhi_greedy_2opt,2.00,7352,163,6980686,99960,116.55,0.00
mona-lisa100K,hhi_greedy_2opt,2.50,7352,258,7019354,99947,116.94,0.00
mona-lisa100K,hhi_greedy_2opt,3.00,7352,153,6985487,99942,116.83,0.00
mona-lisa100K,hhi_greedy_2opt,3.50,7352,151,7000383,99948,117.04,0.00
mona-lisa100K,hhi_greedy_2opt,4.00,7352,155,6993808,99960,117.18,0.00
mona-lisa100K,hhi_greedy_2opt,5.00,7352,168,6987818,99963,117.03,0.00
mona-lisa100K,hhi_greedy_2opt,7.00,7352,185,6974884,99958,117.60,0.00
mona-lisa100K,hhi_greedy_2opt,10.00,7352,157,7008159,99955,117.72,0.00
mona-lisa100K,hhi_greedy_2opt,25.00,7352,190,7033727,99955,119.11,0.00
mona-lisa100K,hhi_greedy_2opt,50.00,7352,164,7064950,99965,120.68,0.00
mona-lisa100K,hhi_greedy_2opt,75.00,7352,163,7068415,99961,121.91,0.00
mona-lisa100K,hhi_greedy_2opt,100.00,7352,185,7059943,99962,123.03,0.00
mona-lisa100K,hhi_greedy_2opt,200.00,7352,169,7137812,99972,124.69,0.00
