Dataset,Algorithm,Lambda,MemoryKB,TimeMS,TourLength,Bends,AvgBendAngle,Accuracy%
a20,hhi_greedy_linearPenalty,0,9712,0,370,19,113.22,0.00
a20,hhi_greedy_linearPenalty,0.50,9712,0,370,19,113.22,0.00
a20,hhi_greedy_linearPenalty,1.00,9712,0,370,19,113.22,0.00
a20,hhi_greedy_linearPenalty,1.50,9712,0,370,19,113.22,0.00
a20,hhi_greedy_linearPenalty,2.00,9712,0,370,19,113.22,0.00
a20,hhi_greedy_linearPenalty,2.50,9712,0,370,19,113.22,0.00
a20,hhi_greedy_linearPenalty,3.00,9712,0,370,19,113.22,0.00
a20,hhi_greedy_linearPenalty,3.50,9712,0,370,19,113.22,0.00
a20,hhi_greedy_linearPenalty,4.00,9712,0,370,19,113.22,0.00
a20,hhi_greedy_linearPenalty,5.00,9712,0,370,19,113.22,0.00
a20,hhi_greedy_linearPenalty,7.00,9712,0,370,19,113.22,0.00
a20,hhi_greedy_linearPenalty,10.00,9712,0,370,19,113.22,0.00
a20,hhi_greedy_linearPenalty,25.00,9712,0,370,19,113.22,0.00
a20,hhi_greedy_linearPenalty,50.00,9712,0,370,19,113.22,0.00
a20,hhi_greedy_linearPenalty,75.00,9712,0,370,19,113.22,0.00
a20,hhi_greedy_linearPenalty,100.00,9712,0,362,19,126.75,0.00
a20,hhi_greedy_linearPenalty,200.00,9712,0,362,19,128.43,0.00
a280,hhi_greedy_linearPenalty,0.00,9712,0,3358,274,134.27,0.00
a280,hhi_greedy_linearPenalty,0.50,9712,0,3358,274,134.27,0.00
a280,hhi_greedy_linearPenalty,1.00,9712,0,3358,274,134.27,0.00
a280,hhi_greedy_linearPenalty,1.50,9712,0,3358,274,134.27,0.00
a280,hhi_greedy_linearPenalty,2.00,9712,0,3358,274,134.27,0.00
a280,hhi_greedy_linearPenalty,2.50,9712,0,3358,274,134.27,0.00
a280,hhi_greedy_linearPenalty,3.00,9712,0,3358,274,134.27,0.00
a280,hhi_greedy_linearPenalty,3.50,9712,0,3358,274,134.27,0.00
a280,hhi_greedy_linearPenalty,4.00,9712,0,3358,274,134.27,0.00
a280,hhi_greedy_linearPenalty,5.00,9712,0,3358,274,134.27,0.00
a280,hhi_greedy_linearPenalty,7.00,9712,0,3358,274,134.27,0.00
a280,hhi_greedy_linearPenalty,10.00,9712,0,3358,274,134.27,0.00
a280,hhi_greedy_linearPenalty,25.00,9712,0,3377,274,136.04,0.00
a280,hhi_greedy_linearPenalty,50.00,9712,0,3377,274,136.04,0.00
a280,hhi_greedy_linearPenalty,75.00,9712,0,3377,274,136.04,0.00
a280,hhi_greedy_linearPenalty,100.00,9712,0,3377,274,136.04,0.00
a280,hhi_greedy_linearPenalty,200.00,9712,0,3377,274,136.04,0.00
xql662,hhi_greedy_linearPenalty,0.00,9712,0,3332,651,131.13,0.00
xql662,hhi_greedy_linearPenalty,0.50,9712,0,3451,650,129.94,0.00
xql662,hhi_greedy_linearPenalty,1.00,9712,0,3571,649,130.79,0.00
xql662,hhi_greedy_linearPenalty,1.50,9712,0,3415,653,132.00,0.00
xql662,hhi_greedy_linearPenalty,2.00,9712,0,3572,653,131.60,0.00
xql662,hhi_greedy_linearPenalty,2.50,9712,0,3373,653,131.50,0.00
xql662,hhi_greedy_linearPenalty,3.00,9712,0,3403,652,131.93,0.00
xql662,hhi_greedy_linearPenalty,3.50,9712,0,3344,651,134.28,0.00
xql662,hhi_greedy_linearPenalty,4.00,9712,0,3342,651,134.27,0.00
xql662,hhi_greedy_linearPenalty,5.00,9712,0,3357,651,132.47,0.00
xql662,hhi_greedy_linearPenalty,7.00,9712,0,3388,655,135.60,0.00
xql662,hhi_greedy_linearPenalty,10.00,9712,0,3449,656,134.76,0.00
xql662,hhi_greedy_linearPenalty,25.00,9712,0,3434,654,134.77,0.00
xql662,hhi_greedy_linearPenalty,50.00,9712,0,3471,656,136.18,0.00
xql662,hhi_greedy_linearPenalty,75.00,9712,0,3628,658,135.66,0.00
xql662,hhi_greedy_linearPenalty,100.00,9712,0,3616,659,135.94,0.00
xql662,hhi_greedy_linearPenalty,200.00,9712,0,3508,661,137.51,0.00
kz9976,hhi_greedy_linearPenalty,0.00,9712,7,1558938,9946,114.02,0.00
kz9976,hhi_greedy_linearPenalty,0.50,9712,8,1559046,9956,114.35,0.00
kz9976,hhi_greedy_linearPenalty,1.00,9712,10,1559046,9956,114.35,0.00
kz9976,hhi_greedy_linearPenalty,1.50,9712,9,1559046,9956,114.35,0.00
kz9976,hhi_greedy_linearPenalty,2.00,9712,7,1559072,9956,114.35,0.00
kz9976,hhi_greedy_linearPenalty,2.50,9712,7,1559087,9956,114.39,0.00
kz9976,hhi_greedy_linearPenalty,3.00,9712,8,1559105,9956,114.38,0.00
kz9976,hhi_greedy_linearPenalty,3.50,9712,7,1559105,9956,114.38,0.00
kz9976,hhi_greedy_linearPenalty,4.00,9712,7,1559150,9956,114.38,0.00
kz9976,hhi_greedy_linearPenalty,5.00,9712,7,1559269,9956,114.39,0.00
kz9976,hhi_greedy_linearPenalty,7.00,9712,7,1538625,9954,114.69,0.00
kz9976,hhi_greedy_linearPenalty,10.00,9712,7,1535562,9954,114.57,0.00
kz9976,hhi_greedy_linearPenalty,25.00,9712,7,1523661,9951,115.19,0.00
kz9976,hhi_greedy_linearPenalty,50.00,9712,7,1546691,9958,115.18,0.00
kz9976,hhi_greedy_linearPenalty,75.00,9712,8,1572277,9962,115.63,0.00
kz9976,hhi_greedy_linearPenalty,100.00,9712,7,1542074,9967,115.74,0.00
kz9976,hhi_greedy_linearPenalty,200.00,9712,9,1575426,9964,116.99,0.00
ei8246,hhi_greedy_linearPenalty,0.00,9712,7,280002,8232,115.22,0.00
ei8246,hhi_greedy_linearPenalty,0.50,9712,6,272251,8228,115.56,0.00
ei8246,hhi_greedy_linearPenalty,1.00,9712,5,277373,8231,115.35,0.00
ei8246,hhi_greedy_linearPenalty,1.50,9712,6,278191,8231,115.28,0.00
ei8246,hhi_greedy_linearPenalty,2.00,9712,6,281249,8231,115.14,0.00
ei8246,hhi_greedy_linearPenalty,2.50,9712,5,273901,8233,115.05,0.00
ei8246,hhi_greedy_linearPenalty,3.00,9712,6,271973,8232,115.84,0.00
ei8246,hhi_greedy_linearPenalty,3.50,9712,7,276631,8236,115.05,0.00
ei8246,hhi_greedy_linearPenalty,4.00,9712,9,280585,8231,115.36,0.00
ei8246,hhi_greedy_linearPenalty,5.00,9712,7,274307,8231,115.66,0.00
ei8246,hhi_greedy_linearPenalty,7.00,9712,7,277110,8231,115.57,0.00
ei8246,hhi_greedy_linearPenalty,10.00,9712,7,276636,8234,115.99,0.00
ei8246,hhi_greedy_linearPenalty,25.00,9712,7,276587,8227,116.77,0.00
ei8246,hhi_greedy_linearPenalty,50.00,9712,6,277334,8231,117.72,0.00
ei8246,hhi_greedy_linearPenalty,75.00,9712,7,283993,8233,119.15,0.00
ei8246,hhi_greedy_linearPenalty,100.00,9712,7,281650,8234,119.39,0.00
ei8246,hhi_greedy_linearPenalty,200.00,9712,6,286788,8237,121.55,0.00
vm22775,hhi_greedy_linearPenalty,0.00,9712,17,823018,22387,116.33,0.00
vm22775,hhi_greedy_linearPenalty,0.50,9712,17,824443,22450,117.62,0.00
vm22775,hhi_greedy_linearPenalty,1.00,9712,17,813422,22465,117.76,0.00
vm22775,hhi_greedy_linearPenalty,1.50,9712,18,818912,22457,117.81,0.00
vm22775,hhi_greedy_linearPenalty,2.00,9712,20,823770,22454,117.71,0.00
vm22775,hhi_greedy_linearPenalty,2.50,9712,19,819114,22455,117.84,0.00
vm22775,hhi_greedy_linearPenalty,3.00,9712,17,826130,22454,117.80,0.00
vm22775,hhi_greedy_linearPenalty,3.50,9712,17,823117,22450,117.99,0.00
vm22775,hhi_greedy_linearPenalty,4.00,9712,18,816820,22459,117.99,0.00
vm22775,hhi_greedy_linearPenalty,5.00,9712,16,822031,22455,117.67,0.00
vm22775,hhi_greedy_linearPenalty,7.00,9712,17,815038,22473,117.78,0.00
vm22775,hhi_greedy_linearPenalty,10.00,9712,18,833453,22478,118.21,0.00
vm22775,hhi_greedy_linearPenalty,25.00,9712,16,835316,22471,118.35,0.00
vm22775,hhi_greedy_linearPenalty,50.00,9712,16,832026,22514,119.23,0.00
vm22775,hhi_greedy_linearPenalty,75.00,9712,20,839442,22547,119.76,0.00
vm22775,hhi_greedy_linearPenalty,100.00,9712,17,835003,22555,119.78,0.00
vm22775,hhi_greedy_linearPenalty,200.00,9712,18,849818,22620,120.58,0.00
ja9847,hhi_greedy_linearPenalty,0.00,9712,8,751944,9782,116.44,0.00
ja9847,hhi_greedy_linearPenalty,0.50,9712,7,739743,9790,116.89,0.00
ja9847,hhi_greedy_linearPenalty,1.00,9712,6,738996,9791,116.84,0.00
ja9847,hhi_greedy_linearPenalty,1.50,9712,6,726173,9791,116.96,0.00
ja9847,hhi_greedy_linearPenalty,2.00,9712,7,741275,9792,116.92,0.00
ja9847,hhi_greedy_linearPenalty,2.50,9712,6,727912,9788,117.02,0.00
ja9847,hhi_greedy_linearPenalty,3.00,9712,7,727655,9786,117.16,0.00
ja9847,hhi_greedy_linearPenalty,3.50,9712,6,727320,9791,117.06,0.00
ja9847,hhi_greedy_linearPenalty,4.00,9712,7,727539,9792,117.06,0.00
ja9847,hhi_greedy_linearPenalty,5.00,9712,9,727598,9792,117.22,0.00
ja9847,hhi_greedy_linearPenalty,7.00,9712,7,722480,9788,117.29,0.00
ja9847,hhi_greedy_linearPenalty,10.00,9712,7,743639,9791,118.33,0.00
ja9847,hhi_greedy_linearPenalty,25.00,9712,7,741428,9800,118.97,0.00
ja9847,hhi_greedy_linearPenalty,50.00,9712,6,757516,9794,119.48,0.00
ja9847,hhi_greedy_linearPenalty,75.00,9712,7,755289,9806,120.37,0.00
ja9847,hhi_greedy_linearPenalty,100.00,9712,7,747228,9806,120.45,0.00
ja9847,hhi_greedy_linearPenalty,200.00,9712,7,768092,9819,122.15,0.00
mona-lisa100K,hhi_greedy_linearPenalty,0.00,9712,231,6999950,99959,116.41,0.00
mona-lisa100K,hhi_greedy_linearPenalty,0.50,9712,177,7005499,99957,116.44,0.00
mona-lisa100K,hhi_greedy_linearPenalty,1.00,9712,164,6986859,99957,116.60,0.00
mona-lisa100K,hhi_greedy_linearPenalty,1.50,9712,146,6977546,99952,116.50,0.00
mona-lisa100K,hhi_greedy_linearPenalty,2.00,9712,135,7001679,99946,116.59,0.00
mona-lisa100K,hhi_greedy_linearPenalty,2.50,9712,136,6991295,99956,116.55,0.00
mona-lisa100K,hhi_greedy_linearPenalty,3.00,9712,144,6989161,99956,116.57,0.00
mona-lisa100K,hhi_greedy_linearPenalty,3.50,9712,159,6989272,99956,116.61,0.00
mona-lisa100K,hhi_greedy_linearPenalty,4.00,9712,176,7006016,99952,116.57,0.00
mona-lisa100K,hhi_greedy_linearPenalty,5.00,9712,178,6998818,99954,116.62,0.00
mona-lisa100K,hhi_greedy_linearPenalty,7.00,9712,192,6981487,99944,116.63,0.00
mona-lisa100K,hhi_greedy_linearPenalty,10.00,9712,192,6995965,99959,116.81,0.00
mona-lisa100K,hhi_greedy_linearPenalty,25.00,9712,162,6981579,99960,117.18,0.00
mona-lisa100K,hhi_greedy_linearPenalty,50.00,9712,156,6987007,99956,117.90,0.00
mona-lisa100K,hhi_greedy_linearPenalty,75.00,9712,160,7012291,99964,118.40,0.00
mona-lisa100K,hhi_greedy_linearPenalty,100.00,9712,205,7045984,99953,119.13,0.00
mona-lisa100K,hhi_greedy_linearPenalty,200.00,9712,164,7024377,99967,120.36,0.00
